{
"type": "FeatureCollection",
"crs": { "type": "name", "properties": { "name": "urn:ogc:def:crs:OGC:1.3:CRS84" } },
                                                                                
"features": [
{ "type": "Feature", "properties": { "center_code": 1001, "district_code": 1, "district_name": "Tunis 1", "region_code": 1000, "region_name": "Hraïria", "center_name": "E.P.ZOUHOUR 4 PROLONGEE HRAIRIA", "center_name_ar": "م إبتدائية حي الزهور 4 الممتدّ - الحرائرية", "LATITUDE": 36.793974, "LONGITUDE": 10.121875 }, "geometry": { "type": "Point", "coordinates": [ 10.121875, 36.793974 ] } },
{ "type": "Feature", "properties": { "center_code": 1002, "district_code": 1, "district_name": "Tunis 1", "region_code": 1000, "region_name": "Hraïria", "center_name": "E.P.2 MARS 34 HRAIRIA 4 -HRAIRIA", "center_name_ar": "م إبتدائية  2مارس 34 الحرايرية 4 - الحرائرية", "LATITUDE": 36.787866, "LONGITUDE": 10.123078 }, "geometry": { "type": "Point", "coordinates": [ 10.123078, 36.787866 ] } },
{ "type": "Feature", "properties": { "center_code": 1003, "district_code": 1, "district_name": "Tunis 1", "region_code": 1000, "region_name": "Hraïria", "center_name": "E.P.HRAIRIA 3 -HRAIRIA", "center_name_ar": "م إبتدائية الحرايرية 3 - الحرائرية", "LATITUDE": 36.790492, "LONGITUDE": 10.121185 }, "geometry": { "type": "Point", "coordinates": [ 10.121185, 36.790492 ] } },
{ "type": "Feature", "properties": { "center_code": 1004, "district_code": 1, "district_name": "Tunis 1", "region_code": 1000, "region_name": "Hraïria", "center_name": "E.P.ZOUHOUR 5 PROLONGEE 1", "center_name_ar": "م إبتدائية حي الزهور 5 الممتدّ 1 - الزهور الخامس", "LATITUDE": 36.789193, "LONGITUDE": 10.109886 }, "geometry": { "type": "Point", "coordinates": [ 10.109886, 36.789193 ] } },
{ "type": "Feature", "properties": { "center_code": 1005, "district_code": 1, "district_name": "Tunis 1", "region_code": 1000, "region_name": "Hraïria", "center_name": "E.P. ALMOUMTAD2 EZZOUHOUR 5", "center_name_ar": "م إبتدائية حي الزهور 5 الممتدّ 2 - الزهور الخامس", "LATITUDE": 36.788784, "LONGITUDE": 10.109431 }, "geometry": { "type": "Point", "coordinates": [ 10.109431, 36.788784 ] } },
{ "type": "Feature", "properties": { "center_code": 1006, "district_code": 1, "district_name": "Tunis 1", "region_code": 1000, "region_name": "Hraïria", "center_name": "E.P.ZOUHOUR 5-1 -ZOUHOUR 5", "center_name_ar": "م إبتدائية حي الزهور 1\/5 - الزهور الخامس", "LATITUDE": 36.792787, "LONGITUDE": 10.117346 }, "geometry": { "type": "Point", "coordinates": [ 10.117346, 36.792787 ] } },
{ "type": "Feature", "properties": { "center_code": 1007, "district_code": 1, "district_name": "Tunis 1", "region_code": 1000, "region_name": "Hraïria", "center_name": "E.P.OKBA IBN NAFAA 2 -ZHOUR 5", "center_name_ar": "م إبتدائية عقبة ابن نافع 2 الزهور - الزهور الخامس", "LATITUDE": 36.788152, "LONGITUDE": 10.10206 }, "geometry": { "type": "Point", "coordinates": [ 10.10206, 36.788152 ] } },
{ "type": "Feature", "properties": { "center_code": 1008, "district_code": 1, "district_name": "Tunis 1", "region_code": 1000, "region_name": "Hraïria", "center_name": "E.P.CITE ZOUHOUR 5-2", "center_name_ar": "م إبتدائية حي الزهور 5 \/ 2 - الزهور الخامس", "LATITUDE": 36.789508, "LONGITUDE": 10.106536 }, "geometry": { "type": "Point", "coordinates": [ 10.106536, 36.789508 ] } },
{ "type": "Feature", "properties": { "center_code": 1009, "district_code": 1, "district_name": "Tunis 1", "region_code": 1000, "region_name": "Hraïria", "center_name": "E.P.OKBA IBN NAFAA 1", "center_name_ar": "م إبتدائية عقبة ابن نافع 1 - الزهور الخامس", "LATITUDE": 36.787875, "LONGITUDE": 10.101569 }, "geometry": { "type": "Point", "coordinates": [ 10.101569, 36.787875 ] } },
{ "type": "Feature", "properties": { "center_code": 1010, "district_code": 1, "district_name": "Tunis 1", "region_code": 1000, "region_name": "Hraïria", "center_name": "E.P.MECHTEL 1 -AGBA", "center_name_ar": "م إبتدائية المشتل 1 - العقبة", "LATITUDE": 36.793735, "LONGITUDE": 10.096394 }, "geometry": { "type": "Point", "coordinates": [ 10.096394, 36.793735 ] } },
{ "type": "Feature", "properties": { "center_code": 1011, "district_code": 1, "district_name": "Tunis 1", "region_code": 1000, "region_name": "Hraïria", "center_name": "E.P.MECHTEL 2 AGBA", "center_name_ar": "م إبتدائية المشتل 2 - العقبة", "LATITUDE": 36.788089, "LONGITUDE": 10.100729 }, "geometry": { "type": "Point", "coordinates": [ 10.100729, 36.788089 ] } },
{ "type": "Feature", "properties": { "center_code": 1012, "district_code": 1, "district_name": "Tunis 1", "region_code": 1000, "region_name": "Hraïria", "center_name": "E.P.CITE ESSAHA HRAIRIA AGBA SUP", "center_name_ar": "م إبتدائية حي الصحة الحرايرية - العقبة العليا", "LATITUDE": 36.792602, "LONGITUDE": 10.087417 }, "geometry": { "type": "Point", "coordinates": [ 10.087417, 36.792602 ] } },
{ "type": "Feature", "properties": { "center_code": 1013, "district_code": 1, "district_name": "Tunis 1", "region_code": 1000, "region_name": "Hraïria", "center_name": "E.P.GHEDIR EL GOULLA", "center_name_ar": "م إبتدائية غدير القلة", "LATITUDE": 36.779258, "LONGITUDE": 10.053083 }, "geometry": { "type": "Point", "coordinates": [ 10.053083, 36.779258 ] } },
{ "type": "Feature", "properties": { "center_code": 1014, "district_code": 1, "district_name": "Tunis 1", "region_code": 1000, "region_name": "Hraïria", "center_name": "E.P.CITE EL ANTIT", "center_name_ar": "م إبتدائية حي العنتيت", "LATITUDE": 36.792787, "LONGITUDE": 10.117346 }, "geometry": { "type": "Point", "coordinates": [ 10.117346, 36.792787 ] } },
{ "type": "Feature", "properties": { "center_code": 1015, "district_code": 1, "district_name": "Tunis 1", "region_code": 1000, "region_name": "Hraïria", "center_name": "E.P.CITE FOLLA", "center_name_ar": "م إبتدائية حي الفلة", "LATITUDE": 36.7971584, "LONGITUDE": 10.10535617 }, "geometry": { "type": "Point", "coordinates": [ 10.10535617, 36.7971584 ] } },
{ "type": "Feature", "properties": { "center_code": 1016, "district_code": 1, "district_name": "Tunis 1", "region_code": 1000, "region_name": "Hraïria", "center_name": "E.P.C. BOUZAIEN EZOUHOUR -TAREK IBN ZIED", "center_name_ar": "م إبتدائية حي بوزيان الزهور - طارق بن زياد", "LATITUDE": 36.795704, "LONGITUDE": 10.117796 }, "geometry": { "type": "Point", "coordinates": [ 10.117796, 36.795704 ] } },
{ "type": "Feature", "properties": { "center_code": 1017, "district_code": 1, "district_name": "Tunis 1", "region_code": 1000, "region_name": "Hraïria", "center_name": "E.P.18 JANVIER HRAIRIA EZZAHROUNI", "center_name_ar": "م إبتدائية 18جانفي الحرايرية - الزهروني", "LATITUDE": 36.79031, "LONGITUDE": 10.118644 }, "geometry": { "type": "Point", "coordinates": [ 10.118644, 36.79031 ] } },
{ "type": "Feature", "properties": { "center_code": 1018, "district_code": 1, "district_name": "Tunis 1", "region_code": 1000, "region_name": "Hraïria", "center_name": "E.P.EZZAHROUNI", "center_name_ar": "م إبتدائية الزهروني", "LATITUDE": 36.79302664, "LONGITUDE": 10.11637641 }, "geometry": { "type": "Point", "coordinates": [ 10.11637641, 36.79302664 ] } },
{ "type": "Feature", "properties": { "center_code": 1019, "district_code": 1, "district_name": "Tunis 1", "region_code": 1000, "region_name": "Hraïria", "center_name": "E.P.CITE ESSALAMA EZZAHROUNI", "center_name_ar": "م إبتدائية حي السلامة - الزهروني", "LATITUDE": 36.784719, "LONGITUDE": 10.115613 }, "geometry": { "type": "Point", "coordinates": [ 10.115613, 36.784719 ] } },
{ "type": "Feature", "properties": { "center_code": 1020, "district_code": 1, "district_name": "Tunis 1", "region_code": 1001, "region_name": "Ezzouhour", "center_name": "E.P.Rue ROMARIN CITE EZZOUHOUR 1", "center_name_ar": "م إبتدائية ", "LATITUDE": 36.202, "LONGITUDE": 12.0 }, "geometry": { "type": "Point", "coordinates": [ 12.0, 36.202 ] } },
{ "type": "Feature", "properties": { "center_code": 1021, "district_code": 1, "district_name": "Tunis 1", "region_code": 1001, "region_name": "Ezzouhour", "center_name": "E.P.ZOUHOUR 4 RUE 4200 -ZOUHOUR 4", "center_name_ar": "م إبتدائية ", "LATITUDE": 36.202, "LONGITUDE": 12.0 }, "geometry": { "type": "Point", "coordinates": [ 12.0, 36.202 ] } },
{ "type": "Feature", "properties": { "center_code": 1022, "district_code": 1, "district_name": "Tunis 1", "region_code": 1001, "region_name": "Ezzouhour", "center_name": "E.P.AMMARIA RUE 4157 SAADA", "center_name_ar": "م إبتدائية ", "LATITUDE": 36.202, "LONGITUDE": 12.0 }, "geometry": { "type": "Point", "coordinates": [ 12.0, 36.202 ] } },
{ "type": "Feature", "properties": { "center_code": 1023, "district_code": 1, "district_name": "Tunis 1", "region_code": 1001, "region_name": "Ezzouhour", "center_name": "E.P.SOMRANE RUE 4137", "center_name_ar": "م إبتدائية ", "LATITUDE": 36.202, "LONGITUDE": 12.0 }, "geometry": { "type": "Point", "coordinates": [ 12.0, 36.202 ] } },
{ "type": "Feature", "properties": { "center_code": 1024, "district_code": 1, "district_name": "Tunis 1", "region_code": 1001, "region_name": "Ezzouhour", "center_name": "E.P.CITE TAYARANE 1  -CITE TAYARANE", "center_name_ar": "م إبتدائية ", "LATITUDE": 36.202, "LONGITUDE": 12.0 }, "geometry": { "type": "Point", "coordinates": [ 12.0, 36.202 ] } },
{ "type": "Feature", "properties": { "center_code": 1025, "district_code": 1, "district_name": "Tunis 1", "region_code": 1001, "region_name": "Ezzouhour", "center_name": "E.P.CITE TAYARANE 2", "center_name_ar": "م إبتدائية ", "LATITUDE": 36.202, "LONGITUDE": 12.0 }, "geometry": { "type": "Point", "coordinates": [ 12.0, 36.202 ] } },
{ "type": "Feature", "properties": { "center_code": 1026, "district_code": 1, "district_name": "Tunis 1", "region_code": 1001, "region_name": "Ezzouhour", "center_name": "E.P.CITE TAYARANE 3   -CITE TAYARANE", "center_name_ar": "م إبتدائية ", "LATITUDE": 36.202, "LONGITUDE": 12.0 }, "geometry": { "type": "Point", "coordinates": [ 12.0, 36.202 ] } },
{ "type": "Feature", "properties": { "center_code": 1027, "district_code": 1, "district_name": "Tunis 1", "region_code": 1001, "region_name": "Ezzouhour", "center_name": "E.P.BACH HAMBA 2", "center_name_ar": "م إبتدائية ", "LATITUDE": 36.202, "LONGITUDE": 12.0 }, "geometry": { "type": "Point", "coordinates": [ 12.0, 36.202 ] } },
{ "type": "Feature", "properties": { "center_code": 1028, "district_code": 1, "district_name": "Tunis 1", "region_code": 1001, "region_name": "Ezzouhour", "center_name": "E.P.CITE BEN SDIRA BECH HANBA", "center_name_ar": "م إبتدائية ", "LATITUDE": 36.202, "LONGITUDE": 12.0 }, "geometry": { "type": "Point", "coordinates": [ 12.0, 36.202 ] } },
{ "type": "Feature", "properties": { "center_code": 1029, "district_code": 1, "district_name": "Tunis 1", "region_code": 1002, "region_name": "Séjoumi", "center_name": "E.P.2 MARS 34 MALLASSINE -ALI BELHOUANE", "center_name_ar": "م إبتدائية  2مارس 34 الملاسين - علي البلهوان", "LATITUDE": 36.798096, "LONGITUDE": 10.158533 }, "geometry": { "type": "Point", "coordinates": [ 10.158533, 36.798096 ] } },
{ "type": "Feature", "properties": { "center_code": 1030, "district_code": 1, "district_name": "Tunis 1", "region_code": 1002, "region_name": "Séjoumi", "center_name": "E.P.EN'NAJEH MALLASSINE", "center_name_ar": "م إبتدائية النجاح الملاسين", "LATITUDE": 36.790653, "LONGITUDE": 10.1619 }, "geometry": { "type": "Point", "coordinates": [ 10.1619, 36.790653 ] } },
{ "type": "Feature", "properties": { "center_code": 1031, "district_code": 1, "district_name": "Tunis 1", "region_code": 1002, "region_name": "Séjoumi", "center_name": "E.P.BAB KHALED MALLASSINE -ENNAJEH", "center_name_ar": "م إبتدائية باب خالد الملاسين - النجاح", "LATITUDE": 36.792488, "LONGITUDE": 10.158698 }, "geometry": { "type": "Point", "coordinates": [ 10.158698, 36.792488 ] } },
{ "type": "Feature", "properties": { "center_code": 1032, "district_code": 1, "district_name": "Tunis 1", "region_code": 1003, "region_name": "El Kabaria", "center_name": "E.P.KABARIA  1", "center_name_ar": "م إبتدائية ", "LATITUDE": 36.202, "LONGITUDE": 12.0 }, "geometry": { "type": "Point", "coordinates": [ 12.0, 36.202 ] } },
{ "type": "Feature", "properties": { "center_code": 1033, "district_code": 1, "district_name": "Tunis 1", "region_code": 1003, "region_name": "El Kabaria", "center_name": "E.P.OUARDIA  2 -KABARIA2", "center_name_ar": "م إبتدائية ", "LATITUDE": 36.202, "LONGITUDE": 12.0 }, "geometry": { "type": "Point", "coordinates": [ 12.0, 36.202 ] } },
{ "type": "Feature", "properties": { "center_code": 1034, "district_code": 1, "district_name": "Tunis 1", "region_code": 1003, "region_name": "El Kabaria", "center_name": "E.P.OUARDIA  6 -KABARIA3", "center_name_ar": "م إبتدائية ", "LATITUDE": 36.202, "LONGITUDE": 12.0 }, "geometry": { "type": "Point", "coordinates": [ 12.0, 36.202 ] } },
{ "type": "Feature", "properties": { "center_code": 1035, "district_code": 1, "district_name": "Tunis 1", "region_code": 1003, "region_name": "El Kabaria", "center_name": "E.P.KABARIA  3", "center_name_ar": "م إبتدائية ", "LATITUDE": 36.202, "LONGITUDE": 12.0 }, "geometry": { "type": "Point", "coordinates": [ 12.0, 36.202 ] } },
{ "type": "Feature", "properties": { "center_code": 1036, "district_code": 1, "district_name": "Tunis 1", "region_code": 1003, "region_name": "El Kabaria", "center_name": "E.P.KABARIA  4", "center_name_ar": "م إبتدائية ", "LATITUDE": 36.202, "LONGITUDE": 12.0 }, "geometry": { "type": "Point", "coordinates": [ 12.0, 36.202 ] } },
{ "type": "Feature", "properties": { "center_code": 1037, "district_code": 1, "district_name": "Tunis 1", "region_code": 1003, "region_name": "El Kabaria", "center_name": "E.P.KABARIA  5 - KABARIA 4", "center_name_ar": "م إبتدائية ", "LATITUDE": 36.202, "LONGITUDE": 12.0 }, "geometry": { "type": "Point", "coordinates": [ 12.0, 36.202 ] } },
{ "type": "Feature", "properties": { "center_code": 1038, "district_code": 1, "district_name": "Tunis 1", "region_code": 1003, "region_name": "El Kabaria", "center_name": "E.P. CITE MUNICIPALITE KABARIA 4", "center_name_ar": "م إبتدائية ", "LATITUDE": 36.202, "LONGITUDE": 12.0 }, "geometry": { "type": "Point", "coordinates": [ 12.0, 36.202 ] } },
{ "type": "Feature", "properties": { "center_code": 1039, "district_code": 1, "district_name": "Tunis 1", "region_code": 1003, "region_name": "El Kabaria", "center_name": "E.P.CITE ENNOUR 1 CITE ENNOUR", "center_name_ar": "م إبتدائية ", "LATITUDE": 36.202, "LONGITUDE": 12.0 }, "geometry": { "type": "Point", "coordinates": [ 12.0, 36.202 ] } },
{ "type": "Feature", "properties": { "center_code": 1040, "district_code": 1, "district_name": "Tunis 1", "region_code": 1003, "region_name": "El Kabaria", "center_name": "E.P.CITE ENNOUR 2 -CITE ENNOUR", "center_name_ar": "م إبتدائية ", "LATITUDE": 36.202, "LONGITUDE": 12.0 }, "geometry": { "type": "Point", "coordinates": [ 12.0, 36.202 ] } },
{ "type": "Feature", "properties": { "center_code": 1041, "district_code": 1, "district_name": "Tunis 1", "region_code": 1003, "region_name": "El Kabaria", "center_name": "E.P.IBN SINA 1", "center_name_ar": "م إبتدائية ", "LATITUDE": 36.202, "LONGITUDE": 12.0 }, "geometry": { "type": "Point", "coordinates": [ 12.0, 36.202 ] } },
{ "type": "Feature", "properties": { "center_code": 1042, "district_code": 1, "district_name": "Tunis 1", "region_code": 1003, "region_name": "El Kabaria", "center_name": "E.P.IBN SINA 2 - IBN SINA 1", "center_name_ar": "م إبتدائية ", "LATITUDE": 36.202, "LONGITUDE": 12.0 }, "geometry": { "type": "Point", "coordinates": [ 12.0, 36.202 ] } },
{ "type": "Feature", "properties": { "center_code": 1043, "district_code": 1, "district_name": "Tunis 1", "region_code": 1003, "region_name": "El Kabaria", "center_name": "E.P.EL IMTIEZ IBN SINA 6-1", "center_name_ar": "م إبتدائية ", "LATITUDE": 36.202, "LONGITUDE": 12.0 }, "geometry": { "type": "Point", "coordinates": [ 12.0, 36.202 ] } },
{ "type": "Feature", "properties": { "center_code": 1044, "district_code": 1, "district_name": "Tunis 1", "region_code": 1003, "region_name": "El Kabaria", "center_name": "E.P.MED ElMESADI(IBN SINA 6-2)", "center_name_ar": "م إبتدائية ", "LATITUDE": 36.202, "LONGITUDE": 12.0 }, "geometry": { "type": "Point", "coordinates": [ 12.0, 36.202 ] } },
{ "type": "Feature", "properties": { "center_code": 1045, "district_code": 1, "district_name": "Tunis 1", "region_code": 1003, "region_name": "El Kabaria", "center_name": "E.P.IBN SINA 6\/3 -IBN SINA 2", "center_name_ar": "م إبتدائية ", "LATITUDE": 36.202, "LONGITUDE": 12.0 }, "geometry": { "type": "Point", "coordinates": [ 12.0, 36.202 ] } },
{ "type": "Feature", "properties": { "center_code": 1046, "district_code": 1, "district_name": "Tunis 1", "region_code": 1003, "region_name": "El Kabaria", "center_name": "E.P.EN'NAJMA EZAHRA IBNSINA2", "center_name_ar": "م إبتدائية ", "LATITUDE": 36.202, "LONGITUDE": 12.0 }, "geometry": { "type": "Point", "coordinates": [ 12.0, 36.202 ] } },
{ "type": "Feature", "properties": { "center_code": 1047, "district_code": 1, "district_name": "Tunis 1", "region_code": 1003, "region_name": "El Kabaria", "center_name": "E.P.MOUROUJE 2 IBN KHALDOUN", "center_name_ar": "م إبتدائية ", "LATITUDE": 36.202, "LONGITUDE": 12.0 }, "geometry": { "type": "Point", "coordinates": [ 12.0, 36.202 ] } },
{ "type": "Feature", "properties": { "center_code": 1048, "district_code": 1, "district_name": "Tunis 1", "region_code": 1003, "region_name": "El Kabaria", "center_name": "E.P.MOUROUJE 2 -EL GHAZALI", "center_name_ar": "م إبتدائية ", "LATITUDE": 36.202, "LONGITUDE": 12.0 }, "geometry": { "type": "Point", "coordinates": [ 12.0, 36.202 ] } },
{ "type": "Feature", "properties": { "center_code": 1049, "district_code": 1, "district_name": "Tunis 1", "region_code": 1003, "region_name": "El Kabaria", "center_name": "E.P.EL HANA EL MOUROUJ 2", "center_name_ar": "م إبتدائية ", "LATITUDE": 36.202, "LONGITUDE": 12.0 }, "geometry": { "type": "Point", "coordinates": [ 12.0, 36.202 ] } },
{ "type": "Feature", "properties": { "center_code": 1050, "district_code": 1, "district_name": "Tunis 1", "region_code": 1004, "region_name": "Médina", "center_name": "E.P.7 RUE DOCTEUR CASSAR", "center_name_ar": "م إبتدائية نهج الحكيم كسار - الحفصية", "LATITUDE": 36.80274, "LONGITUDE": 10.1699 }, "geometry": { "type": "Point", "coordinates": [ 10.1699, 36.80274 ] } },
{ "type": "Feature", "properties": { "center_code": 1051, "district_code": 1, "district_name": "Tunis 1", "region_code": 1004, "region_name": "Médina", "center_name": "E.P.RUE EL MARR BEB MNARA", "center_name_ar": "م إبتدائية ", "LATITUDE": 36.202, "LONGITUDE": 12.0 }, "geometry": { "type": "Point", "coordinates": [ 12.0, 36.202 ] } },
{ "type": "Feature", "properties": { "center_code": 1052, "district_code": 1, "district_name": "Tunis 1", "region_code": 1004, "region_name": "Médina", "center_name": "E.P.PLACE LEADER -BAB MNARA", "center_name_ar": "م إبتدائية ساحة معقل الزعيم - باب منارة", "LATITUDE": 36.79269, "LONGITUDE": 10.164906 }, "geometry": { "type": "Point", "coordinates": [ 10.164906, 36.79269 ] } },
{ "type": "Feature", "properties": { "center_code": 1053, "district_code": 1, "district_name": "Tunis 1", "region_code": 1004, "region_name": "Médina", "center_name": "E.P.BAB JEDID -TOURBIT ELBEY", "center_name_ar": "م إبتدائية باب الجديد - تربة الباي", "LATITUDE": 36.79216, "LONGITUDE": 10.173194 }, "geometry": { "type": "Point", "coordinates": [ 10.173194, 36.79216 ] } },
{ "type": "Feature", "properties": { "center_code": 1054, "district_code": 1, "district_name": "Tunis 1", "region_code": 1004, "region_name": "Médina", "center_name": "E.P.RUE KOTTAB LOUZIR -SIDI ALI AZOUZ", "center_name_ar": "م إبتدائية نهج كتاب الوزير - سيدي علي عزوز", "LATITUDE": 36.796852, "LONGITUDE": 10.174021 }, "geometry": { "type": "Point", "coordinates": [ 10.174021, 36.796852 ] } },
{ "type": "Feature", "properties": { "center_code": 1055, "district_code": 1, "district_name": "Tunis 1", "region_code": 1004, "region_name": "Médina", "center_name": "E.P.SADIKI RUE SINAN PACHA TAOUFIK", "center_name_ar": "م إبتدائية الصادقية نهج سنان باشا - التوفيق", "LATITUDE": 36.798828, "LONGITUDE": 10.166001 }, "geometry": { "type": "Point", "coordinates": [ 10.166001, 36.798828 ] } },
{ "type": "Feature", "properties": { "center_code": 1056, "district_code": 1, "district_name": "Tunis 1", "region_code": 1005, "region_name": "El Ouardia", "center_name": "E.P.EL WAFA RUE SALAH MALKI -OUARDIA", "center_name_ar": "م إبتدائية الوفاء نهج صالح المالقي - الوردية", "LATITUDE": 36.769611, "LONGITUDE": 10.179261 }, "geometry": { "type": "Point", "coordinates": [ 10.179261, 36.769611 ] } },
{ "type": "Feature", "properties": { "center_code": 1057, "district_code": 1, "district_name": "Tunis 1", "region_code": 1005, "region_name": "El Ouardia", "center_name": "E.P.RUE KHARROUBA -HABIB BOUGATFA", "center_name_ar": "م إبتدائية بالفي نهج الخروبة - الحبيب بو قطفة", "LATITUDE": 36.776845, "LONGITUDE": 10.1915 }, "geometry": { "type": "Point", "coordinates": [ 10.1915, 36.776845 ] } },
{ "type": "Feature", "properties": { "center_code": 1058, "district_code": 1, "district_name": "Tunis 1", "region_code": 1005, "region_name": "El Ouardia", "center_name": "E.P.CITE IZDIHAR -OURDIA", "center_name_ar": "م إبتدائية حي الازدهار الوردية", "LATITUDE": 36.770372, "LONGITUDE": 10.182757 }, "geometry": { "type": "Point", "coordinates": [ 10.182757, 36.770372 ] } },
{ "type": "Feature", "properties": { "center_code": 1059, "district_code": 1, "district_name": "Tunis 1", "region_code": 1005, "region_name": "El Ouardia", "center_name": "E.P.2 MARS MONFOCON LA CANIA -IZDIHAR", "center_name_ar": "م إبتدائية  2مارس لاكانيا - الازدهار", "LATITUDE": 36.772516, "LONGITUDE": 10.181368 }, "geometry": { "type": "Point", "coordinates": [ 10.181368, 36.772516 ] } },
{ "type": "Feature", "properties": { "center_code": 1060, "district_code": 1, "district_name": "Tunis 1", "region_code": 1005, "region_name": "El Ouardia", "center_name": "E.P.EL OUARDIA 1 -CITE MOHAMED ALI", "center_name_ar": "م إبتدائية الوردية 1 - حي محمّد علي", "LATITUDE": 36.767717, "LONGITUDE": 10.185852 }, "geometry": { "type": "Point", "coordinates": [ 10.185852, 36.767717 ] } },
{ "type": "Feature", "properties": { "center_code": 1061, "district_code": 1, "district_name": "Tunis 1", "region_code": 1005, "region_name": "El Ouardia", "center_name": "E.P.CITE MED ALI", "center_name_ar": "م إبتدائية حي محمد علي الوردية", "LATITUDE": 36.767169, "LONGITUDE": 10.189645 }, "geometry": { "type": "Point", "coordinates": [ 10.189645, 36.767169 ] } },
{ "type": "Feature", "properties": { "center_code": 1062, "district_code": 1, "district_name": "Tunis 1", "region_code": 1005, "region_name": "El Ouardia", "center_name": "E.P.RUE DE LA SOMME -SIDIBELHASSEN", "center_name_ar": "م إبتدائية نهج لاصوم - سيدي بالحسن", "LATITUDE": 36.778803, "LONGITUDE": 10.188725 }, "geometry": { "type": "Point", "coordinates": [ 10.188725, 36.778803 ] } },
{ "type": "Feature", "properties": { "center_code": 1063, "district_code": 1, "district_name": "Tunis 1", "region_code": 1006, "region_name": "Bab El Bhar", "center_name": "E.P.RUE CHARLES DE GAULLE Bab Bhar", "center_name_ar": "م إبتدائية نهج شارل ديقول - باب  بحر", "LATITUDE": 36.794697, "LONGITUDE": 10.178131 }, "geometry": { "type": "Point", "coordinates": [ 10.178131, 36.794697 ] } },
{ "type": "Feature", "properties": { "center_code": 1064, "district_code": 1, "district_name": "Tunis 1", "region_code": 1006, "region_name": "Bab El Bhar", "center_name": "E.P.17 RUE DE RUSSIE", "center_name_ar": "م إبتدائية نهج روسيا عدد17 - باب  بحر", "LATITUDE": 36.794551, "LONGITUDE": 10.17733961 }, "geometry": { "type": "Point", "coordinates": [ 10.17733961, 36.794551 ] } },
{ "type": "Feature", "properties": { "center_code": 1065, "district_code": 1, "district_name": "Tunis 1", "region_code": 1006, "region_name": "Bab El Bhar", "center_name": "E.P.16 RUE DE RUSSIE -BAB BHAR", "center_name_ar": "م إبتدائية  16نهج روسيا - باب  بحر", "LATITUDE": 36.79524883, "LONGITUDE": 10.17729156 }, "geometry": { "type": "Point", "coordinates": [ 10.17729156, 36.79524883 ] } },
{ "type": "Feature", "properties": { "center_code": 1066, "district_code": 1, "district_name": "Tunis 1", "region_code": 1006, "region_name": "Bab El Bhar", "center_name": "E.P.18 RUE DE L'INDE -LES JARDINS", "center_name_ar": "م إبتدائية 18نهج الهند - الحدائق", "LATITUDE": 36.811464, "LONGITUDE": 10.18236 }, "geometry": { "type": "Point", "coordinates": [ 10.18236, 36.811464 ] } },
{ "type": "Feature", "properties": { "center_code": 1067, "district_code": 1, "district_name": "Tunis 1", "region_code": 1006, "region_name": "Bab El Bhar", "center_name": "E.P.80 RUE ABED RAZEK CHRAIBI LAC TUNIS", "center_name_ar": "م إبتدائية  80نهج عبد الرزاق الشرايبي - بحيرة تونس", "LATITUDE": 36.79533573, "LONGITUDE": 10.18627077 }, "geometry": { "type": "Point", "coordinates": [ 10.18627077, 36.79533573 ] } },
{ "type": "Feature", "properties": { "center_code": 1068, "district_code": 1, "district_name": "Tunis 1", "region_code": 1006, "region_name": "Bab El Bhar", "center_name": "E.P.29 RUE DE MARSEILLE", "center_name_ar": "م إبتدائية  29نهج مرسيليا - الحبيب ثامر", "LATITUDE": 36.803462, "LONGITUDE": 10.181684 }, "geometry": { "type": "Point", "coordinates": [ 10.181684, 36.803462 ] } },
{ "type": "Feature", "properties": { "center_code": 1069, "district_code": 1, "district_name": "Tunis 1", "region_code": 1006, "region_name": "Bab El Bhar", "center_name": "E.P.12,RUE ALI JELILI -HEDI CHAKER", "center_name_ar": "م إبتدائية ", "LATITUDE": 36.202, "LONGITUDE": 12.0 }, "geometry": { "type": "Point", "coordinates": [ 12.0, 36.202 ] } },
{ "type": "Feature", "properties": { "center_code": 1070, "district_code": 1, "district_name": "Tunis 1", "region_code": 1006, "region_name": "Bab El Bhar", "center_name": "E.P.16 RUE EL IDRISSI -SIDI ELBAHRI", "center_name_ar": "م إبتدائية ", "LATITUDE": 36.202, "LONGITUDE": 12.0 }, "geometry": { "type": "Point", "coordinates": [ 12.0, 36.202 ] } },
{ "type": "Feature", "properties": { "center_code": 1071, "district_code": 1, "district_name": "Tunis 1", "region_code": 1007, "region_name": "Bab Souika", "center_name": "E.P.3 RUE KELIBIA -BAB KHADRA", "center_name_ar": "م إبتدائية  3نهج قليبية - باب الخضراء", "LATITUDE": 36.81141002, "LONGITUDE": 10.17304701 }, "geometry": { "type": "Point", "coordinates": [ 10.17304701, 36.81141002 ] } },
{ "type": "Feature", "properties": { "center_code": 1072, "district_code": 1, "district_name": "Tunis 1", "region_code": 1007, "region_name": "Bab Souika", "center_name": "E.P.RUE DES ARCS BEB SAADOUN", "center_name_ar": "م إبتدائية نهج الأقواس - باب سعدون", "LATITUDE": 36.806136, "LONGITUDE": 10.163182 }, "geometry": { "type": "Point", "coordinates": [ 10.163182, 36.806136 ] } },
{ "type": "Feature", "properties": { "center_code": 1073, "district_code": 1, "district_name": "Tunis 1", "region_code": 1007, "region_name": "Bab Souika", "center_name": "E.P.SIDI ALOUI -EL HALFAOUINE", "center_name_ar": "م إبتدائية  ساحة سيدي العلوي - الحلفاوين", "LATITUDE": 36.80778845, "LONGITUDE": 10.16497578 }, "geometry": { "type": "Point", "coordinates": [ 10.16497578, 36.80778845 ] } },
{ "type": "Feature", "properties": { "center_code": 1074, "district_code": 1, "district_name": "Tunis 1", "region_code": 1007, "region_name": "Bab Souika", "center_name": "E.P.55 RUE BAB SOUIKA", "center_name_ar": "م إبتدائية  55نهج باب سويقة", "LATITUDE": 36.80547818, "LONGITUDE": 10.17032454 }, "geometry": { "type": "Point", "coordinates": [ 10.17032454, 36.80547818 ] } },
{ "type": "Feature", "properties": { "center_code": 1075, "district_code": 1, "district_name": "Tunis 1", "region_code": 1008, "region_name": "Djebel Jelloud", "center_name": "E.P. C. THAMER JBEL JLOUD -SIDIFATHALLAH", "center_name_ar": "م إبتدائية حي ثامر جبل الجلود - سيدي فتح الله", "LATITUDE": 36.759691, "LONGITUDE": 10.21179 }, "geometry": { "type": "Point", "coordinates": [ 10.21179, 36.759691 ] } },
{ "type": "Feature", "properties": { "center_code": 1076, "district_code": 1, "district_name": "Tunis 1", "region_code": 1008, "region_name": "Djebel Jelloud", "center_name": "E.P.RUE H-LIF J JELOUD", "center_name_ar": "م إبتدائية نهج حمام الأنف جبل الجلود - باش حامبة", "LATITUDE": 36.764689, "LONGITUDE": 10.20398 }, "geometry": { "type": "Point", "coordinates": [ 10.20398, 36.764689 ] } },
{ "type": "Feature", "properties": { "center_code": 1077, "district_code": 1, "district_name": "Tunis 1", "region_code": 1008, "region_name": "Djebel Jelloud", "center_name": "E.P. R. PHILIPE VILLE JBELJLOUD -B.HAMBA", "center_name_ar": "م إبتدائية نهج فليب فيل جبل الجلود - باش حامبة", "LATITUDE": 36.770115, "LONGITUDE": 10.197978 }, "geometry": { "type": "Point", "coordinates": [ 10.197978, 36.770115 ] } },
{ "type": "Feature", "properties": { "center_code": 1078, "district_code": 1, "district_name": "Tunis 1", "region_code": 1008, "region_name": "Djebel Jelloud", "center_name": "E.P.ROUTE LACAGNA JBEL JLOUD -ELGARJOUMA", "center_name_ar": "م إبتدائية طريق لاكانيا جبل الجلود - القرجومة", "LATITUDE": 36.766994, "LONGITUDE": 10.195197 }, "geometry": { "type": "Point", "coordinates": [ 10.195197, 36.766994 ] } },
{ "type": "Feature", "properties": { "center_code": 1079, "district_code": 1, "district_name": "Tunis 1", "region_code": 1008, "region_name": "Djebel Jelloud", "center_name": "E.P.SIDI FATHALLAH 1 -CITE ELFATEH", "center_name_ar": "م إبتدائية سيدي فتح الله 1 - حي الفتح", "LATITUDE": 36.764706, "LONGITUDE": 10.204458 }, "geometry": { "type": "Point", "coordinates": [ 10.204458, 36.764706 ] } },
{ "type": "Feature", "properties": { "center_code": 1080, "district_code": 1, "district_name": "Tunis 1", "region_code": 1008, "region_name": "Djebel Jelloud", "center_name": "E.P.SIDIFATHALLA2 JBEL JLOUD -C. ELFATEH", "center_name_ar": "م إبتدائية سيدي فتح الله 2 جبل الجلود - حي الفتح", "LATITUDE": 36.765087, "LONGITUDE": 10.204453 }, "geometry": { "type": "Point", "coordinates": [ 10.204453, 36.765087 ] } },
{ "type": "Feature", "properties": { "center_code": 1081, "district_code": 1, "district_name": "Tunis 1", "region_code": 1009, "region_name": "Sidi El Béchir", "center_name": "E.P. R. KARABAKA MONFLEURI -FARHATHACHED", "center_name_ar": "م إبتدائية نهج كرباكة مونفلوري - فرحات حشاد", "LATITUDE": 36.783645, "LONGITUDE": 10.175293 }, "geometry": { "type": "Point", "coordinates": [ 10.175293, 36.783645 ] } },
{ "type": "Feature", "properties": { "center_code": 1082, "district_code": 1, "district_name": "Tunis 1", "region_code": 1009, "region_name": "Sidi El Béchir", "center_name": "E.P.RUE DU SAHEL  -FARHAT HACHED", "center_name_ar": "م إبتدائية نهج الساحل - فرحات حشاد", "LATITUDE": 36.782731, "LONGITUDE": 10.17423 }, "geometry": { "type": "Point", "coordinates": [ 10.17423, 36.782731 ] } },
{ "type": "Feature", "properties": { "center_code": 1083, "district_code": 1, "district_name": "Tunis 1", "region_code": 1009, "region_name": "Sidi El Béchir", "center_name": "E.P.RUE ALI DOUAGI MONTFLEURI -A. CHEBBI", "center_name_ar": "م إبتدائية نهج علي الدوعاجي مونفلوري - أبو القاسم الشابي", "LATITUDE": 36.78437917, "LONGITUDE": 10.17692368 }, "geometry": { "type": "Point", "coordinates": [ 10.17692368, 36.78437917 ] } },
{ "type": "Feature", "properties": { "center_code": 1084, "district_code": 1, "district_name": "Tunis 1", "region_code": 1009, "region_name": "Sidi El Béchir", "center_name": "E.P.APP.RUE DES SAVANTS ABOUKACEM CHEBBI", "center_name_ar": "م إبتدائية التطبيقية نهج العلماء - أبو القاسم الشابي", "LATITUDE": 36.789672, "LONGITUDE": 10.172931 }, "geometry": { "type": "Point", "coordinates": [ 10.172931, 36.789672 ] } },
{ "type": "Feature", "properties": { "center_code": 1085, "district_code": 1, "district_name": "Tunis 1", "region_code": 1009, "region_name": "Sidi El Béchir", "center_name": "E.P.CITE HILAL 1 SAIDA MANOUBIA", "center_name_ar": "م إبتدائية حي هلال 1 - السيدة المنوبية", "LATITUDE": 36.782062, "LONGITUDE": 10.168417 }, "geometry": { "type": "Point", "coordinates": [ 10.168417, 36.782062 ] } },
{ "type": "Feature", "properties": { "center_code": 1086, "district_code": 1, "district_name": "Tunis 1", "region_code": 1009, "region_name": "Sidi El Béchir", "center_name": "E.P.CITE HILAL 2", "center_name_ar": "م إبتدائية حي هلال 2 - السيدة المنوبية", "LATITUDE": 36.778387, "LONGITUDE": 10.169824 }, "geometry": { "type": "Point", "coordinates": [ 10.169824, 36.778387 ] } },
{ "type": "Feature", "properties": { "center_code": 1087, "district_code": 1, "district_name": "Tunis 1", "region_code": 1010, "region_name": "Sidi Hassine", "center_name": "E.P.BORJ CHAKIR", "center_name_ar": "م إبتدائية برج شاكير", "LATITUDE": 36.76433717, "LONGITUDE": 10.07670802 }, "geometry": { "type": "Point", "coordinates": [ 10.07670802, 36.76433717 ] } },
{ "type": "Feature", "properties": { "center_code": 1088, "district_code": 1, "district_name": "Tunis 1", "region_code": 1010, "region_name": "Sidi Hassine", "center_name": "E.P.SIDI HASSINE 1", "center_name_ar": "م إبتدائية سيدي حسين 1", "LATITUDE": 36.768604, "LONGITUDE": 10.114181 }, "geometry": { "type": "Point", "coordinates": [ 10.114181, 36.768604 ] } },
{ "type": "Feature", "properties": { "center_code": 1089, "district_code": 1, "district_name": "Tunis 1", "region_code": 1010, "region_name": "Sidi Hassine", "center_name": "E.P.SIDI HASSINE 2", "center_name_ar": "م إبتدائية سيدي حسين 2", "LATITUDE": 36.77240468, "LONGITUDE": 10.11304194 }, "geometry": { "type": "Point", "coordinates": [ 10.11304194, 36.77240468 ] } },
{ "type": "Feature", "properties": { "center_code": 1090, "district_code": 1, "district_name": "Tunis 1", "region_code": 1010, "region_name": "Sidi Hassine", "center_name": "E.P.SIDI HASSINE 3", "center_name_ar": "م إبتدائية سيدي حسين 3", "LATITUDE": 36.767029, "LONGITUDE": 10.11168 }, "geometry": { "type": "Point", "coordinates": [ 10.11168, 36.767029 ] } },
{ "type": "Feature", "properties": { "center_code": 1091, "district_code": 1, "district_name": "Tunis 1", "region_code": 1010, "region_name": "Sidi Hassine", "center_name": "E.P.ECHEBI CITE MRAD El Jaiara", "center_name_ar": "م إبتدائية الشابي حي مراد - الجيارة", "LATITUDE": 36.768448, "LONGITUDE": 10.099733 }, "geometry": { "type": "Point", "coordinates": [ 10.099733, 36.768448 ] } },
{ "type": "Feature", "properties": { "center_code": 1092, "district_code": 1, "district_name": "Tunis 1", "region_code": 1010, "region_name": "Sidi Hassine", "center_name": "E.P.CITE BOUGATFA -JAYARA", "center_name_ar": "م إبتدائية حي بوقطفة - الجيارة", "LATITUDE": 36.776747, "LONGITUDE": 10.10521 }, "geometry": { "type": "Point", "coordinates": [ 10.10521, 36.776747 ] } },
{ "type": "Feature", "properties": { "center_code": 1093, "district_code": 1, "district_name": "Tunis 1", "region_code": 1010, "region_name": "Sidi Hassine", "center_name": "E.P.EL JAYARA 1", "center_name_ar": "م إبتدائية الجيارة 1", "LATITUDE": 36.768173, "LONGITUDE": 10.093439 }, "geometry": { "type": "Point", "coordinates": [ 10.093439, 36.768173 ] } },
{ "type": "Feature", "properties": { "center_code": 1094, "district_code": 1, "district_name": "Tunis 1", "region_code": 1010, "region_name": "Sidi Hassine", "center_name": "E.P.EL JAYARA 2", "center_name_ar": "م إبتدائية الجيارة 2", "LATITUDE": 36.767754, "LONGITUDE": 10.088395 }, "geometry": { "type": "Point", "coordinates": [ 10.088395, 36.767754 ] } },
{ "type": "Feature", "properties": { "center_code": 1095, "district_code": 1, "district_name": "Tunis 1", "region_code": 1010, "region_name": "Sidi Hassine", "center_name": "E.P.ATTAR", "center_name_ar": "م إبتدائية العطار", "LATITUDE": 36.732479, "LONGITUDE": 10.068868 }, "geometry": { "type": "Point", "coordinates": [ 10.068868, 36.732479 ] } },
{ "type": "Feature", "properties": { "center_code": 1096, "district_code": 1, "district_name": "Tunis 1", "region_code": 1010, "region_name": "Sidi Hassine", "center_name": "E.P.EL FATH", "center_name_ar": "م إبتدائية حي الفتح سيدي حسين - العطار", "LATITUDE": 36.761596, "LONGITUDE": 10.112074 }, "geometry": { "type": "Point", "coordinates": [ 10.112074, 36.761596 ] } },
{ "type": "Feature", "properties": { "center_code": 1097, "district_code": 1, "district_name": "Tunis 1", "region_code": 1010, "region_name": "Sidi Hassine", "center_name": "E.P.SEJOUMI -20 MARS", "center_name_ar": "م إبتدائية السيجومي - 20مارس", "LATITUDE": 36.754737, "LONGITUDE": 10.117184 }, "geometry": { "type": "Point", "coordinates": [ 10.117184, 36.754737 ] } },
{ "type": "Feature", "properties": { "center_code": 1098, "district_code": 1, "district_name": "Tunis 1", "region_code": 1010, "region_name": "Sidi Hassine", "center_name": "E.P.CITE 20 MARS SIJOUMI", "center_name_ar": "م إبتدائية حي 20 مارس السيجومي", "LATITUDE": 36.75273262, "LONGITUDE": 10.11072482 }, "geometry": { "type": "Point", "coordinates": [ 10.11072482, 36.75273262 ] } },
{ "type": "Feature", "properties": { "center_code": 1099, "district_code": 1, "district_name": "Tunis 1", "region_code": 1010, "region_name": "Sidi Hassine", "center_name": "E.P.BIRINE", "center_name_ar": "م إبتدائية بيرين", "LATITUDE": 36.717791, "LONGITUDE": 10.107401 }, "geometry": { "type": "Point", "coordinates": [ 10.107401, 36.717791 ] } },
{ "type": "Feature", "properties": { "center_code": 1100, "district_code": 1, "district_name": "Tunis 1", "region_code": 1010, "region_name": "Sidi Hassine", "center_name": "E.P.MGHIRA ENZEL", "center_name_ar": "م إبتدائية مغيره انزال", "LATITUDE": 36.71110604, "LONGITUDE": 10.13410167 }, "geometry": { "type": "Point", "coordinates": [ 10.13410167, 36.71110604 ] } },
{ "type": "Feature", "properties": { "center_code": 1101, "district_code": 1, "district_name": "Tunis 1", "region_code": 1010, "region_name": "Sidi Hassine", "center_name": "E.P.ABDALLAH ELMAYOU MGHIRA", "center_name_ar": "م إبتدائية سيدي عبد الله المعيو - مغيره انزال", "LATITUDE": 36.730821, "LONGITUDE": 10.123266 }, "geometry": { "type": "Point", "coordinates": [ 10.123266, 36.730821 ] } },
{ "type": "Feature", "properties": { "center_code": 1102, "district_code": 1, "district_name": "Tunis 1", "region_code": 1010, "region_name": "Sidi Hassine", "center_name": "E.P.SIDI HASSINE 4 -MGHIRA ENZEL", "center_name_ar": "م إبتدائية سيدي حسين 4 - مغيره انزال", "LATITUDE": 36.744448, "LONGITUDE": 10.119402 }, "geometry": { "type": "Point", "coordinates": [ 10.119402, 36.744448 ] } },
{ "type": "Feature", "properties": { "center_code": 1103, "district_code": 1, "district_name": "Tunis 1", "region_code": 1010, "region_name": "Sidi Hassine", "center_name": "E.P.CITE EL MONGI SLIM MGHIRA ENZEL", "center_name_ar": "م إبتدائية  حي المنجي سليم المغيرة إنزال", "LATITUDE": 36.7102938, "LONGITUDE": 10.14280051 }, "geometry": { "type": "Point", "coordinates": [ 10.14280051, 36.7102938 ] } },
{ "type": "Feature", "properties": { "center_code": 1104, "district_code": 1, "district_name": "Tunis 1", "region_code": 1010, "region_name": "Sidi Hassine", "center_name": "E.P.OMAR EL MOKHTAR -25 JUILLET", "center_name_ar": "م إبتدائية  عمر المختار - 25جويلية", "LATITUDE": 36.731851, "LONGITUDE": 10.127258 }, "geometry": { "type": "Point", "coordinates": [ 10.127258, 36.731851 ] } },
{ "type": "Feature", "properties": { "center_code": 1105, "district_code": 2, "district_name": "Tunis 2", "region_code": 1011, "region_name": "Ettahrir", "center_name": "E.P.ETTAHRIR 1 -ETTAHRIR 1", "center_name_ar": "م إبتدائية التحرير 1 - التحرير الأول", "LATITUDE": 36.823941, "LONGITUDE": 10.126603 }, "geometry": { "type": "Point", "coordinates": [ 10.126603, 36.823941 ] } },
{ "type": "Feature", "properties": { "center_code": 1106, "district_code": 2, "district_name": "Tunis 2", "region_code": 1011, "region_name": "Ettahrir", "center_name": "E.P.CITE ETTAHRIR 2 -ETTAHRIR 1", "center_name_ar": "م إبتدائية حي التحرير 2 - التحرير الأول", "LATITUDE": 36.824321, "LONGITUDE": 10.125575 }, "geometry": { "type": "Point", "coordinates": [ 10.125575, 36.824321 ] } },
{ "type": "Feature", "properties": { "center_code": 1107, "district_code": 2, "district_name": "Tunis 2", "region_code": 1011, "region_name": "Ettahrir", "center_name": "E.P.CITE ETTAHRIR 3 -ETTAHRIR 3", "center_name_ar": "م إبتدائية حي التحرير 3 - التحرير الثالث", "LATITUDE": 36.827795, "LONGITUDE": 10.127022 }, "geometry": { "type": "Point", "coordinates": [ 10.127022, 36.827795 ] } },
{ "type": "Feature", "properties": { "center_code": 1108, "district_code": 2, "district_name": "Tunis 2", "region_code": 1011, "region_name": "Ettahrir", "center_name": "E.P.ETTAHRIR SUPERIEUR", "center_name_ar": "م إبتدائية التحرير العلوي", "LATITUDE": 36.835476, "LONGITUDE": 10.120726 }, "geometry": { "type": "Point", "coordinates": [ 10.120726, 36.835476 ] } },
{ "type": "Feature", "properties": { "center_code": 1109, "district_code": 2, "district_name": "Tunis 2", "region_code": 1012, "region_name": "El Omrane", "center_name": "E.P.16 RUE BICHARA EL KHOURI -OMRANE", "center_name_ar": "م إبتدائية  16نهج بشارة الخوري - العمران", "LATITUDE": 36.814544, "LONGITUDE": 10.165967 }, "geometry": { "type": "Point", "coordinates": [ 10.165967, 36.814544 ] } },
{ "type": "Feature", "properties": { "center_code": 1110, "district_code": 2, "district_name": "Tunis 2", "region_code": 1012, "region_name": "El Omrane", "center_name": "E.P.RUE POLOGNE -OMRANE", "center_name_ar": "م إبتدائية نهج بولونيا - العمران", "LATITUDE": 36.810963, "LONGITUDE": 10.155486 }, "geometry": { "type": "Point", "coordinates": [ 10.155486, 36.810963 ] } },
{ "type": "Feature", "properties": { "center_code": 1111, "district_code": 2, "district_name": "Tunis 2", "region_code": 1012, "region_name": "El Omrane", "center_name": "E.P.BIR KRAM JBEL LAHMER -C.DES OLIVIERS", "center_name_ar": "م إبتدائية  بئر الكرم جبل الأحمر - حي الزياتين", "LATITUDE": 36.818221, "LONGITUDE": 10.158872 }, "geometry": { "type": "Point", "coordinates": [ 10.158872, 36.818221 ] } },
{ "type": "Feature", "properties": { "center_code": 1112, "district_code": 2, "district_name": "Tunis 2", "region_code": 1012, "region_name": "El Omrane", "center_name": "E.P.CITE DES OLIVIERS 1", "center_name_ar": "م إبتدائية جبل الأحمر حي الزياتين 1 - حي الزياتين", "LATITUDE": 36.819811, "LONGITUDE": 10.158435 }, "geometry": { "type": "Point", "coordinates": [ 10.158435, 36.819811 ] } },
{ "type": "Feature", "properties": { "center_code": 1113, "district_code": 2, "district_name": "Tunis 2", "region_code": 1012, "region_name": "El Omrane", "center_name": "E.P.CITE DES OLIVIERS 2", "center_name_ar": "م إبتدائية حي الزياتين 2 - حي الزياتين", "LATITUDE": 36.819719, "LONGITUDE": 10.158287 }, "geometry": { "type": "Point", "coordinates": [ 10.158287, 36.819719 ] } },
{ "type": "Feature", "properties": { "center_code": 1114, "district_code": 2, "district_name": "Tunis 2", "region_code": 1012, "region_name": "El Omrane", "center_name": "E.P.RAS ETTABIA RUE DE FESS", "center_name_ar": "م إبتدائية رأس الطابية نهج فاس", "LATITUDE": 36.820129, "LONGITUDE": 10.142721 }, "geometry": { "type": "Point", "coordinates": [ 10.142721, 36.820129 ] } },
{ "type": "Feature", "properties": { "center_code": 1115, "district_code": 2, "district_name": "Tunis 2", "region_code": 1012, "region_name": "El Omrane", "center_name": "E.P.CITE ERROMANA -RASS TABIA", "center_name_ar": "م إبتدائية حي الرمانة - رأس الطابية", "LATITUDE": 36.822771, "LONGITUDE": 10.144809 }, "geometry": { "type": "Point", "coordinates": [ 10.144809, 36.822771 ] } },
{ "type": "Feature", "properties": { "center_code": 1116, "district_code": 2, "district_name": "Tunis 2", "region_code": 1012, "region_name": "El Omrane", "center_name": "E.P.BIR ATIG -JBEL LAHMER", "center_name_ar": "م إبتدائية  بئر عتيق جبل الأحمر", "LATITUDE": 36.819647, "LONGITUDE": 10.155509 }, "geometry": { "type": "Point", "coordinates": [ 10.155509, 36.819647 ] } },
{ "type": "Feature", "properties": { "center_code": 1117, "district_code": 2, "district_name": "Tunis 2", "region_code": 1012, "region_name": "El Omrane", "center_name": "E.P.EL FAOUEZ OMRANE -OUED SEBII", "center_name_ar": "م إبتدائية الفوز العمران - وادي السبعي", "LATITUDE": 36.822005, "LONGITUDE": 10.164232 }, "geometry": { "type": "Point", "coordinates": [ 10.164232, 36.822005 ] } },
{ "type": "Feature", "properties": { "center_code": 1118, "district_code": 2, "district_name": "Tunis 2", "region_code": 1012, "region_name": "El Omrane", "center_name": "E.P.2 MARS 34 EL OMRANE", "center_name_ar": "م إبتدائية  2مارس 34 العمران - وادي السبعي", "LATITUDE": 36.820435, "LONGITUDE": 10.164763 }, "geometry": { "type": "Point", "coordinates": [ 10.164763, 36.820435 ] } },
{ "type": "Feature", "properties": { "center_code": 1119, "district_code": 2, "district_name": "Tunis 2", "region_code": 1013, "region_name": "El Omrane supérieur", "center_name": "E.P.CITE IBN KHALDOUN 2 -ROMANA", "center_name_ar": "م إبتدائية حي ابن خلدون 2 - الرمانة", "LATITUDE": 36.823595, "LONGITUDE": 10.138052 }, "geometry": { "type": "Point", "coordinates": [ 10.138052, 36.823595 ] } },
{ "type": "Feature", "properties": { "center_code": 1120, "district_code": 2, "district_name": "Tunis 2", "region_code": 1013, "region_name": "El Omrane supérieur", "center_name": "E.P.CITE IBN KHALDOUN 3", "center_name_ar": "م إبتدائية حي ابن خلدون 3 - الرمانة", "LATITUDE": 36.830634, "LONGITUDE": 10.140082 }, "geometry": { "type": "Point", "coordinates": [ 10.140082, 36.830634 ] } },
{ "type": "Feature", "properties": { "center_code": 1121, "district_code": 2, "district_name": "Tunis 2", "region_code": 1013, "region_name": "El Omrane supérieur", "center_name": "E.P.CITE IBN KHALDOUN 6 -IBN KHALDOUN6", "center_name_ar": "م إبتدائية ابن خلدون 6 - حي ابن خلدون السادس", "LATITUDE": 36.835616, "LONGITUDE": 10.129406 }, "geometry": { "type": "Point", "coordinates": [ 10.129406, 36.835616 ] } },
{ "type": "Feature", "properties": { "center_code": 1122, "district_code": 2, "district_name": "Tunis 2", "region_code": 1013, "region_name": "El Omrane supérieur", "center_name": "E.P.CITE EL INTILAKA 3 -CITE EL INTILAKA", "center_name_ar": "م إبتدائية حي الانطلاقة 3 - حي الإنطلاقة", "LATITUDE": 36.8411, "LONGITUDE": 10.126966 }, "geometry": { "type": "Point", "coordinates": [ 10.126966, 36.8411 ] } },
{ "type": "Feature", "properties": { "center_code": 1123, "district_code": 2, "district_name": "Tunis 2", "region_code": 1013, "region_name": "El Omrane supérieur", "center_name": "E.P.CITE  INTILAKA 1 -CITE EL INTILAKA", "center_name_ar": "م إبتدائية حي الانطلاقة 1 - حي الإنطلاقة", "LATITUDE": 36.839934, "LONGITUDE": 10.11963 }, "geometry": { "type": "Point", "coordinates": [ 10.11963, 36.839934 ] } },
{ "type": "Feature", "properties": { "center_code": 1124, "district_code": 2, "district_name": "Tunis 2", "region_code": 1013, "region_name": "El Omrane supérieur", "center_name": "E.P.IBN ARAFA", "center_name_ar": "م إبتدائية الامام بن عرفة - العمران الأعلى", "LATITUDE": 36.837493, "LONGITUDE": 10.131752 }, "geometry": { "type": "Point", "coordinates": [ 10.131752, 36.837493 ] } },
{ "type": "Feature", "properties": { "center_code": 1125, "district_code": 2, "district_name": "Tunis 2", "region_code": 1013, "region_name": "El Omrane supérieur", "center_name": "E.P.ECHEBBI - OMRAN SUP", "center_name_ar": "م إبتدائية الشابي - العمران الاعلى", "LATITUDE": 36.840324, "LONGITUDE": 10.130297 }, "geometry": { "type": "Point", "coordinates": [ 10.130297, 36.840324 ] } },
{ "type": "Feature", "properties": { "center_code": 1126, "district_code": 2, "district_name": "Tunis 2", "region_code": 1013, "region_name": "El Omrane supérieur", "center_name": "E.P.EL INTILAKA 2 -NESSIM", "center_name_ar": "م إبتدائية الانطلاقة 2 - النسيم", "LATITUDE": 36.837394, "LONGITUDE": 10.118817 }, "geometry": { "type": "Point", "coordinates": [ 10.118817, 36.837394 ] } },
{ "type": "Feature", "properties": { "center_code": 1127, "district_code": 2, "district_name": "Tunis 2", "region_code": 1013, "region_name": "El Omrane supérieur", "center_name": "E.P.CITE IBN KHALDOUN 5 -SEDDIK", "center_name_ar": "م إبتدائية ابن خلدون 5 - الصديق", "LATITUDE": 36.832417, "LONGITUDE": 10.129491 }, "geometry": { "type": "Point", "coordinates": [ 10.129491, 36.832417 ] } },
{ "type": "Feature", "properties": { "center_code": 1128, "district_code": 2, "district_name": "Tunis 2", "region_code": 1014, "region_name": "Le Kram", "center_name": "E.P.RUE BOUCHOUCHA KRAM KRAM EST", "center_name_ar": "م إبتدائية نهج بوشوشة الكرم - الكرم الشرقي", "LATITUDE": 36.831541, "LONGITUDE": 10.317284 }, "geometry": { "type": "Point", "coordinates": [ 10.317284, 36.831541 ] } },
{ "type": "Feature", "properties": { "center_code": 1129, "district_code": 2, "district_name": "Tunis 2", "region_code": 1014, "region_name": "Le Kram", "center_name": "E.P.AVENUE BOURGUIBA KRAM", "center_name_ar": "م إبتدائية شارع بورقيبة الكرم - الكرم الشرقي", "LATITUDE": 36.832481, "LONGITUDE": 10.315827 }, "geometry": { "type": "Point", "coordinates": [ 10.315827, 36.832481 ] } },
{ "type": "Feature", "properties": { "center_code": 1130, "district_code": 2, "district_name": "Tunis 2", "region_code": 1014, "region_name": "Le Kram", "center_name": "E.P.2 R.FARHAT HACHED salambou -RIADH", "center_name_ar": "م إبتدائية نهج فرحات حشاد صلامبو - الرياض", "LATITUDE": 36.839035, "LONGITUDE": 10.308839 }, "geometry": { "type": "Point", "coordinates": [ 10.308839, 36.839035 ] } },
{ "type": "Feature", "properties": { "center_code": 1131, "district_code": 2, "district_name": "Tunis 2", "region_code": 1014, "region_name": "Le Kram", "center_name": "E.P.1 RUE 5 DECEMBRE SALAMBOU -RIADH", "center_name_ar": "م إبتدائية 1نهج 5ديسمبر صلامبو - الرياض", "LATITUDE": 36.838976, "LONGITUDE": 10.307466 }, "geometry": { "type": "Point", "coordinates": [ 10.307466, 36.838976 ] } },
{ "type": "Feature", "properties": { "center_code": 1132, "district_code": 2, "district_name": "Tunis 2", "region_code": 1014, "region_name": "Le Kram", "center_name": "E.P.C BAHIRA AIN ZAGHOU", "center_name_ar": "م إبتدائية شط البحيرة عين زغوان - البحيرة", "LATITUDE": 36.855839, "LONGITUDE": 10.281636 }, "geometry": { "type": "Point", "coordinates": [ 10.281636, 36.855839 ] } },
{ "type": "Feature", "properties": { "center_code": 1133, "district_code": 2, "district_name": "Tunis 2", "region_code": 1014, "region_name": "Le Kram", "center_name": "E.P.M.SLIM AIN ZAGHOUAN S.CH.", "center_name_ar": "م إبتدائية المنجي سليم عين زغوان - سيدي فرج", "LATITUDE": 36.877947, "LONGITUDE": 10.267505 }, "geometry": { "type": "Point", "coordinates": [ 10.267505, 36.877947 ] } },
{ "type": "Feature", "properties": { "center_code": 1134, "district_code": 2, "district_name": "Tunis 2", "region_code": 1014, "region_name": "Le Kram", "center_name": "E.P.SIDI AMOR KRAM OUEST", "center_name_ar": "م إبتدائية سيدي عمر الكرم الغربي", "LATITUDE": 36.844066, "LONGITUDE": 10.305681 }, "geometry": { "type": "Point", "coordinates": [ 10.305681, 36.844066 ] } },
{ "type": "Feature", "properties": { "center_code": 1135, "district_code": 2, "district_name": "Tunis 2", "region_code": 1014, "region_name": "Le Kram", "center_name": "E.P.RUE DE LIBYE SALAMBO -BIR HILOU", "center_name_ar": "م إبتدائية نهج ليبيا صلامبو - بير الحلو", "LATITUDE": 36.843364, "LONGITUDE": 10.31511 }, "geometry": { "type": "Point", "coordinates": [ 10.31511, 36.843364 ] } },
{ "type": "Feature", "properties": { "center_code": 1136, "district_code": 2, "district_name": "Tunis 2", "region_code": 1015, "region_name": "La Marsa", "center_name": "E.P.RUE DES ROSES MARSA", "center_name_ar": "م إبتدائية نهج الورد المرسى - المرسى المدينة", "LATITUDE": 36.886307, "LONGITUDE": 10.325267 }, "geometry": { "type": "Point", "coordinates": [ 10.325267, 36.886307 ] } },
{ "type": "Feature", "properties": { "center_code": 1137, "district_code": 2, "district_name": "Tunis 2", "region_code": 1015, "region_name": "La Marsa", "center_name": "E.P.AVENUE BOURGUIBA MARSA -MARSA VILLE", "center_name_ar": "م إبتدائية شارع بورقيبة المرسى - المرسى المدينة", "LATITUDE": 36.881794, "LONGITUDE": 10.326371 }, "geometry": { "type": "Point", "coordinates": [ 10.326371, 36.881794 ] } },
{ "type": "Feature", "properties": { "center_code": 1138, "district_code": 2, "district_name": "Tunis 2", "region_code": 1015, "region_name": "La Marsa", "center_name": "E.P.AV. T. M'HIRI MARSA  -MARSA VILLE", "center_name_ar": "م إبتدائية المرسى شارع الطيب المهيري - المرسى المدينة", "LATITUDE": 36.880702, "LONGITUDE": 10.327344 }, "geometry": { "type": "Point", "coordinates": [ 10.327344, 36.880702 ] } },
{ "type": "Feature", "properties": { "center_code": 1139, "district_code": 2, "district_name": "Tunis 2", "region_code": 1015, "region_name": "La Marsa", "center_name": "COLLEGE  FADHEL BEN ACHOUR MARSA VILLE", "center_name_ar": "م.إعدادية الفاضل بن عاشور المرسى - المرسى المدينة", "LATITUDE": 36.87974, "LONGITUDE": 10.325749 }, "geometry": { "type": "Point", "coordinates": [ 10.325749, 36.87974 ] } },
{ "type": "Feature", "properties": { "center_code": 1140, "district_code": 2, "district_name": "Tunis 2", "region_code": 1015, "region_name": "La Marsa", "center_name": "Collége Taieb Mhiri la Marsa", "center_name_ar": "م.إعدادية الطيب المهيري بالمرسى - المرسى المدينة", "LATITUDE": 36.88187, "LONGITUDE": 10.326429 }, "geometry": { "type": "Point", "coordinates": [ 10.326429, 36.88187 ] } },
{ "type": "Feature", "properties": { "center_code": 1141, "district_code": 2, "district_name": "Tunis 2", "region_code": 1015, "region_name": "La Marsa", "center_name": "E.P.RUE MOHAMED ALI  - LES JARDINS", "center_name_ar": "م إبتدائية نهج محمد علي الطابق - الحدائق", "LATITUDE": 36.878011, "LONGITUDE": 10.311535 }, "geometry": { "type": "Point", "coordinates": [ 10.311535, 36.878011 ] } },
{ "type": "Feature", "properties": { "center_code": 1142, "district_code": 2, "district_name": "Tunis 2", "region_code": 1015, "region_name": "La Marsa", "center_name": "E.P.CITE RIADH EL MARSA", "center_name_ar": "م إبتدائية حي الرياض المرسى", "LATITUDE": 36.88437, "LONGITUDE": 10.312411 }, "geometry": { "type": "Point", "coordinates": [ 10.312411, 36.88437 ] } },
{ "type": "Feature", "properties": { "center_code": 1143, "district_code": 2, "district_name": "Tunis 2", "region_code": 1015, "region_name": "La Marsa", "center_name": "COLLEGE  CITE RIADH LA MARSA", "center_name_ar": "م.إعدادية حي الرياض المرسى", "LATITUDE": 36.888782, "LONGITUDE": 10.314819 }, "geometry": { "type": "Point", "coordinates": [ 10.314819, 36.888782 ] } },
{ "type": "Feature", "properties": { "center_code": 1144, "district_code": 2, "district_name": "Tunis 2", "region_code": 1015, "region_name": "La Marsa", "center_name": "E.P.Farhat Hached -RMILA", "center_name_ar": "م إبتدائية فرحات حشادالمرسى - الرميلة", "LATITUDE": 36.89012, "LONGITUDE": 10.309257 }, "geometry": { "type": "Point", "coordinates": [ 10.309257, 36.89012 ] } },
{ "type": "Feature", "properties": { "center_code": 1145, "district_code": 2, "district_name": "Tunis 2", "region_code": 1015, "region_name": "La Marsa", "center_name": "E.P.CITE NOUVELLE MARSA -RMILA", "center_name_ar": "م إبتدائية الحي الجديد المرسى - الرميلة", "LATITUDE": 36.886663, "LONGITUDE": 10.304983 }, "geometry": { "type": "Point", "coordinates": [ 10.304983, 36.886663 ] } },
{ "type": "Feature", "properties": { "center_code": 1146, "district_code": 2, "district_name": "Tunis 2", "region_code": 1015, "region_name": "La Marsa", "center_name": "E.P.GAMMARTH", "center_name_ar": "م إبتدائية قمرت", "LATITUDE": 36.905363, "LONGITUDE": 10.300057 }, "geometry": { "type": "Point", "coordinates": [ 10.300057, 36.905363 ] } },
{ "type": "Feature", "properties": { "center_code": 1147, "district_code": 2, "district_name": "Tunis 2", "region_code": 1015, "region_name": "La Marsa", "center_name": "E.P. 14 JANVIER HARROUCHE  GAMARTH", "center_name_ar": "م إبتدائية   14 جانفي بالحروش - قمرت", "LATITUDE": 36.90905, "LONGITUDE": 10.290909 }, "geometry": { "type": "Point", "coordinates": [ 10.290909, 36.90905 ] } },
{ "type": "Feature", "properties": { "center_code": 1148, "district_code": 2, "district_name": "Tunis 2", "region_code": 1015, "region_name": "La Marsa", "center_name": "E.P.SIDI DAOUD", "center_name_ar": "م إبتدائية سيدي داود", "LATITUDE": 36.864863, "LONGITUDE": 10.302975 }, "geometry": { "type": "Point", "coordinates": [ 10.302975, 36.864863 ] } },
{ "type": "Feature", "properties": { "center_code": 1149, "district_code": 2, "district_name": "Tunis 2", "region_code": 1015, "region_name": "La Marsa", "center_name": "COLLEGE  SIDI DAOUD", "center_name_ar": "م.إعدادية سيدي داود", "LATITUDE": 36.86192, "LONGITUDE": 10.312324 }, "geometry": { "type": "Point", "coordinates": [ 10.312324, 36.86192 ] } },
{ "type": "Feature", "properties": { "center_code": 1150, "district_code": 2, "district_name": "Tunis 2", "region_code": 1015, "region_name": "La Marsa", "center_name": "E.P.BAHER LAZREG MARSA", "center_name_ar": "م إبتدائية البحر الأزرق المرسى", "LATITUDE": 36.875392, "LONGITUDE": 10.290996 }, "geometry": { "type": "Point", "coordinates": [ 10.290996, 36.875392 ] } },
{ "type": "Feature", "properties": { "center_code": 1151, "district_code": 2, "district_name": "Tunis 2", "region_code": 1016, "region_name": "El Menzah", "center_name": "E.P.PLA. MENDES FR MUTUELLEVILLE -1 JUIN", "center_name_ar": "م إبتدائية ساحة منداس فرانس ميتيال فيل - غرة جوان", "LATITUDE": 36.832601, "LONGITUDE": 10.172066 }, "geometry": { "type": "Point", "coordinates": [ 10.172066, 36.832601 ] } },
{ "type": "Feature", "properties": { "center_code": 1152, "district_code": 2, "district_name": "Tunis 2", "region_code": 1016, "region_name": "El Menzah", "center_name": "COLLEGE  LE BEAU SITE MENZEH -1 JUIN", "center_name_ar": "م.إعدادية الموقع الجميل المنزه - غرة جوان", "LATITUDE": 36.834212, "LONGITUDE": 10.165367 }, "geometry": { "type": "Point", "coordinates": [ 10.165367, 36.834212 ] } },
{ "type": "Feature", "properties": { "center_code": 1153, "district_code": 2, "district_name": "Tunis 2", "region_code": 1016, "region_name": "El Menzah", "center_name": "E.P.RUE HEDI KHEFACHA MENZAH", "center_name_ar": "م إبتدائية الهادي خفشة المنزه", "LATITUDE": 36.83732, "LONGITUDE": 10.178 }, "geometry": { "type": "Point", "coordinates": [ 10.178, 36.83732 ] } },
{ "type": "Feature", "properties": { "center_code": 1154, "district_code": 2, "district_name": "Tunis 2", "region_code": 1016, "region_name": "El Menzah", "center_name": "COLLEGE  RUE PLOMB -MENZEH", "center_name_ar": "م.إعدادية نهج الرصاص المنزه", "LATITUDE": 36.836893, "LONGITUDE": 10.179383 }, "geometry": { "type": "Point", "coordinates": [ 10.179383, 36.836893 ] } },
{ "type": "Feature", "properties": { "center_code": 1155, "district_code": 2, "district_name": "Tunis 2", "region_code": 1016, "region_name": "El Menzah", "center_name": "E.P.CITE EL MANAR 2 -MANAR", "center_name_ar": "م إبتدائية حي المنار 2 - المنار", "LATITUDE": 36.836155, "LONGITUDE": 10.156661 }, "geometry": { "type": "Point", "coordinates": [ 10.156661, 36.836155 ] } },
{ "type": "Feature", "properties": { "center_code": 1156, "district_code": 2, "district_name": "Tunis 2", "region_code": 1016, "region_name": "El Menzah", "center_name": "E.P.MENZEH 9 -MANAR", "center_name_ar": "م إبتدائية المنزه التاسع - المنار", "LATITUDE": 36.84722, "LONGITUDE": 10.155582 }, "geometry": { "type": "Point", "coordinates": [ 10.155582, 36.84722 ] } },
{ "type": "Feature", "properties": { "center_code": 1157, "district_code": 2, "district_name": "Tunis 2", "region_code": 1016, "region_name": "El Menzah", "center_name": "COLLEGE  MANAR 2 MANAR", "center_name_ar": "م.إعدادية المنار 2 - المنار", "LATITUDE": 36.838991, "LONGITUDE": 10.15546 }, "geometry": { "type": "Point", "coordinates": [ 10.15546, 36.838991 ] } },
{ "type": "Feature", "properties": { "center_code": 1158, "district_code": 2, "district_name": "Tunis 2", "region_code": 1016, "region_name": "El Menzah", "center_name": "E.P.MANAR 1 -MANAR 1", "center_name_ar": "م إبتدائية المنار 1 - المنار(1)", "LATITUDE": 36.833811, "LONGITUDE": 10.152735 }, "geometry": { "type": "Point", "coordinates": [ 10.152735, 36.833811 ] } },
{ "type": "Feature", "properties": { "center_code": 1159, "district_code": 2, "district_name": "Tunis 2", "region_code": 1016, "region_name": "El Menzah", "center_name": "COLLEGE  MANAR 1", "center_name_ar": "م.إعدادية المنار 1", "LATITUDE": 36.835445, "LONGITUDE": 10.1471 }, "geometry": { "type": "Point", "coordinates": [ 10.1471, 36.835445 ] } },
{ "type": "Feature", "properties": { "center_code": 1160, "district_code": 2, "district_name": "Tunis 2", "region_code": 1017, "region_name": "Le Bardo", "center_name": "E.P.AVENUE BOURGUIBA BARDO", "center_name_ar": "م إبتدائية شارع الحبيب بورقيبة باردو", "LATITUDE": 36.808597, "LONGITUDE": 10.137898 }, "geometry": { "type": "Point", "coordinates": [ 10.137898, 36.808597 ] } },
{ "type": "Feature", "properties": { "center_code": 1161, "district_code": 2, "district_name": "Tunis 2", "region_code": 1017, "region_name": "Le Bardo", "center_name": "E.P.CITE RIADH -BARDO", "center_name_ar": "م إبتدائية حي الرياض - باردو", "LATITUDE": 36.81446, "LONGITUDE": 10.1318 }, "geometry": { "type": "Point", "coordinates": [ 10.1318, 36.81446 ] } },
{ "type": "Feature", "properties": { "center_code": 1162, "district_code": 2, "district_name": "Tunis 2", "region_code": 1017, "region_name": "Le Bardo", "center_name": "C. cité Fattouma Bourguiba Bardo", "center_name_ar": "م.إعدادية حي فطومة بورقيبة بـاردو", "LATITUDE": 36.814043, "LONGITUDE": 10.134374 }, "geometry": { "type": "Point", "coordinates": [ 10.134374, 36.814043 ] } },
{ "type": "Feature", "properties": { "center_code": 1163, "district_code": 2, "district_name": "Tunis 2", "region_code": 1017, "region_name": "Le Bardo", "center_name": "E.P.RUE HEDI CHAKER -BARDO SUD", "center_name_ar": "م إبتدائية نهج الهادي شاكر - باردو الجنوبي", "LATITUDE": 36.801176, "LONGITUDE": 10.135385 }, "geometry": { "type": "Point", "coordinates": [ 10.135385, 36.801176 ] } },
{ "type": "Feature", "properties": { "center_code": 1164, "district_code": 2, "district_name": "Tunis 2", "region_code": 1017, "region_name": "Le Bardo", "center_name": "E.P.RUE TAZARKA BARDO -BOUCHOUCHA", "center_name_ar": "م إبتدائية نهج تازركة باردو - بوشوشة", "LATITUDE": 36.810392, "LONGITUDE": 10.141242 }, "geometry": { "type": "Point", "coordinates": [ 10.141242, 36.810392 ] } },
{ "type": "Feature", "properties": { "center_code": 1165, "district_code": 2, "district_name": "Tunis 2", "region_code": 1017, "region_name": "Le Bardo", "center_name": "E.P.R.DES ORANGERS -BOUCHOUCHA", "center_name_ar": "م إبتدائية نهج البرتقال - بوشوشة", "LATITUDE": 36.81039, "LONGITUDE": 10.14608 }, "geometry": { "type": "Point", "coordinates": [ 10.14608, 36.81039 ] } },
{ "type": "Feature", "properties": { "center_code": 1166, "district_code": 2, "district_name": "Tunis 2", "region_code": 1017, "region_name": "Le Bardo", "center_name": "E.P.RUE ESSANAOUBAR -LA BONNE RESIDENCE", "center_name_ar": "م إبتدائية الصنوبر - الإقامة الطيبة", "LATITUDE": 36.807919, "LONGITUDE": 10.146844 }, "geometry": { "type": "Point", "coordinates": [ 10.146844, 36.807919 ] } },
{ "type": "Feature", "properties": { "center_code": 1167, "district_code": 2, "district_name": "Tunis 2", "region_code": 1017, "region_name": "Le Bardo", "center_name": "E.P.RUE MEDENINE N.21 BARDO KHAZNADAR", "center_name_ar": "م إبتدائية نهج مدنين عدد 21 باردو - خزندار", "LATITUDE": 36.807712, "LONGITUDE": 10.129226 }, "geometry": { "type": "Point", "coordinates": [ 10.129226, 36.807712 ] } },
{ "type": "Feature", "properties": { "center_code": 1168, "district_code": 2, "district_name": "Tunis 2", "region_code": 1017, "region_name": "Le Bardo", "center_name": "E.P.ESSAIDIA PAR ENNAKHIL -KHAZNADAR", "center_name_ar": "م إبتدائية السعيدية عن النخيل - خزندار", "LATITUDE": 36.802728, "LONGITUDE": 10.126679 }, "geometry": { "type": "Point", "coordinates": [ 10.126679, 36.802728 ] } },
{ "type": "Feature", "properties": { "center_code": 1169, "district_code": 2, "district_name": "Tunis 2", "region_code": 1017, "region_name": "Le Bardo", "center_name": "E.P.KSAR SAID 1", "center_name_ar": "م إبتدائية قصر السعيد 1 - قصر السعيد", "LATITUDE": 36.816627, "LONGITUDE": 10.121301 }, "geometry": { "type": "Point", "coordinates": [ 10.121301, 36.816627 ] } },
{ "type": "Feature", "properties": { "center_code": 1170, "district_code": 2, "district_name": "Tunis 2", "region_code": 1017, "region_name": "Le Bardo", "center_name": "E.P.2 MARS 34 KSAR SAID 2", "center_name_ar": "م إبتدائية  2مارس 34 قصر السعيد 2", "LATITUDE": 36.821426, "LONGITUDE": 10.122217 }, "geometry": { "type": "Point", "coordinates": [ 10.122217, 36.821426 ] } },
{ "type": "Feature", "properties": { "center_code": 1171, "district_code": 2, "district_name": "Tunis 2", "region_code": 1017, "region_name": "Le Bardo", "center_name": "E.P.KSAR SAID 3 BARDO  KSAR SAID 2", "center_name_ar": "م إبتدائية قصر السعيد 3 باردو -  قصر السعيد الثاني", "LATITUDE": 36.824353, "LONGITUDE": 10.118075 }, "geometry": { "type": "Point", "coordinates": [ 10.118075, 36.824353 ] } },
{ "type": "Feature", "properties": { "center_code": 1172, "district_code": 2, "district_name": "Tunis 2", "region_code": 1017, "region_name": "Le Bardo", "center_name": "E.P.CITE DES OFFICIERS SAADA", "center_name_ar": "م إبتدائية حي ضباط الصف - السعادة", "LATITUDE": 36.799692, "LONGITUDE": 10.122916 }, "geometry": { "type": "Point", "coordinates": [ 10.122916, 36.799692 ] } },
{ "type": "Feature", "properties": { "center_code": 1173, "district_code": 2, "district_name": "Tunis 2", "region_code": 1017, "region_name": "Le Bardo", "center_name": "E.P.IBN SINA  BARDO", "center_name_ar": "م إبتدائية ابن سينا باردو", "LATITUDE": 36.829822, "LONGITUDE": 10.114952 }, "geometry": { "type": "Point", "coordinates": [ 10.114952, 36.829822 ] } },
{ "type": "Feature", "properties": { "center_code": 1174, "district_code": 2, "district_name": "Tunis 2", "region_code": 1018, "region_name": "La Goulette", "center_name": "E.P.9 RUE 2 MARS LA GOULETTE", "center_name_ar": "م إبتدائية  9نهج 2 مارس حلق الواد", "LATITUDE": 36.817708, "LONGITUDE": 10.303804 }, "geometry": { "type": "Point", "coordinates": [ 10.303804, 36.817708 ] } },
{ "type": "Feature", "properties": { "center_code": 1175, "district_code": 2, "district_name": "Tunis 2", "region_code": 1018, "region_name": "La Goulette", "center_name": "E.P.KHEIREDDINE RUE ABOU TEMMAM", "center_name_ar": "م إبتدائية خير الدين نهج أبو تمام", "LATITUDE": 36.827204, "LONGITUDE": 10.311495 }, "geometry": { "type": "Point", "coordinates": [ 10.311495, 36.827204 ] } },
{ "type": "Feature", "properties": { "center_code": 1176, "district_code": 2, "district_name": "Tunis 2", "region_code": 1018, "region_name": "La Goulette", "center_name": "E.P.AOUINA RTE SOUKRA -T. MHIRI AOUINA", "center_name_ar": "م إبتدائية العوينة طريق سكرة - الطيب المهيري العوينة", "LATITUDE": 36.851601, "LONGITUDE": 10.258233 }, "geometry": { "type": "Point", "coordinates": [ 10.258233, 36.851601 ] } },
{ "type": "Feature", "properties": { "center_code": 1177, "district_code": 2, "district_name": "Tunis 2", "region_code": 1018, "region_name": "La Goulette", "center_name": "E.P.AOUINA CITE MHIRI", "center_name_ar": "م إبتدائية العوينة حي الطيب المهيري", "LATITUDE": 36.850733, "LONGITUDE": 10.264224 }, "geometry": { "type": "Point", "coordinates": [ 10.264224, 36.850733 ] } },
{ "type": "Feature", "properties": { "center_code": 1178, "district_code": 2, "district_name": "Tunis 2", "region_code": 1018, "region_name": "La Goulette", "center_name": "E.P.CITE DES IMMEUBLES", "center_name_ar": "م إبتدائية حي العمارات العوينة - الطيب المهيري العوينة", "LATITUDE": 36.85235, "LONGITUDE": 10.259549 }, "geometry": { "type": "Point", "coordinates": [ 10.259549, 36.85235 ] } },
{ "type": "Feature", "properties": { "center_code": 1179, "district_code": 2, "district_name": "Tunis 2", "region_code": 1018, "region_name": "La Goulette", "center_name": "Collège Aouina", "center_name_ar": "معهد العوينة - الطيب المهيري العوينة", "LATITUDE": 36.857375, "LONGITUDE": 10.250729 }, "geometry": { "type": "Point", "coordinates": [ 10.250729, 36.857375 ] } },
{ "type": "Feature", "properties": { "center_code": 1180, "district_code": 2, "district_name": "Tunis 2", "region_code": 1019, "region_name": "Cité El Khadra", "center_name": "E.P.RUE CLAUDE BERNARD CITE LES JARDINS", "center_name_ar": "م إبتدائية نهج كلود برنار - حي الحدائق", "LATITUDE": 36.823159, "LONGITUDE": 10.181818 }, "geometry": { "type": "Point", "coordinates": [ 10.181818, 36.823159 ] } },
{ "type": "Feature", "properties": { "center_code": 1181, "district_code": 2, "district_name": "Tunis 2", "region_code": 1019, "region_name": "Cité El Khadra", "center_name": "E.P.CITE OLYM.MONGI SLIM", "center_name_ar": "م إبتدائية الحي الاولمبي المنجي سليم - علي البلهوان", "LATITUDE": 36.838059, "LONGITUDE": 10.196148 }, "geometry": { "type": "Point", "coordinates": [ 10.196148, 36.838059 ] } },
{ "type": "Feature", "properties": { "center_code": 1182, "district_code": 2, "district_name": "Tunis 2", "region_code": 1019, "region_name": "Cité El Khadra", "center_name": "E.P.MAHMOUD B CHABAAN14-1", "center_name_ar": "م إبتدائية محمود بن شبعان 14 \/ 1 - علي البلهوان", "LATITUDE": 36.833448, "LONGITUDE": 10.194873 }, "geometry": { "type": "Point", "coordinates": [ 10.194873, 36.833448 ] } },
{ "type": "Feature", "properties": { "center_code": 1183, "district_code": 2, "district_name": "Tunis 2", "region_code": 1019, "region_name": "Cité El Khadra", "center_name": "E.P.2 mars34 CITE KHADRA 6 farhat hached", "center_name_ar": "م إبتدائية 2مارس 34 حي الخضراء 6 - فرحات حشاد", "LATITUDE": 36.828679, "LONGITUDE": 10.196489 }, "geometry": { "type": "Point", "coordinates": [ 10.196489, 36.828679 ] } },
{ "type": "Feature", "properties": { "center_code": 1184, "district_code": 2, "district_name": "Tunis 2", "region_code": 1019, "region_name": "Cité El Khadra", "center_name": "E.P. BERGES DU LAC", "center_name_ar": "م إبتدائية ضفاف البحيرة", "LATITUDE": 36.836388, "LONGITUDE": 10.246522 }, "geometry": { "type": "Point", "coordinates": [ 10.246522, 36.836388 ] } },
{ "type": "Feature", "properties": { "center_code": 1185, "district_code": 2, "district_name": "Tunis 2", "region_code": 1020, "region_name": "Carthage", "center_name": "E.P.6 RUE 2 MARS SIDI BOUSAID", "center_name_ar": "م إبتدائية نهج2مارس سيدي بوسعيد6 - سيدي أبي سعيد", "LATITUDE": 36.870652, "LONGITUDE": 10.34497876 }, "geometry": { "type": "Point", "coordinates": [ 10.34497876, 36.870652 ] } },
{ "type": "Feature", "properties": { "center_code": 1186, "district_code": 2, "district_name": "Tunis 2", "region_code": 1020, "region_name": "Carthage", "center_name": "E.P.RUE IBN KHALDOUN AMILCAR", "center_name_ar": "م إبتدائية نهج ابن خلدون أميلكار", "LATITUDE": 36.868998, "LONGITUDE": 10.33714778 }, "geometry": { "type": "Point", "coordinates": [ 10.33714778, 36.868998 ] } },
{ "type": "Feature", "properties": { "center_code": 1187, "district_code": 2, "district_name": "Tunis 2", "region_code": 1020, "region_name": "Carthage", "center_name": "E.P.OKBA IBNOU NAFER CARTHAGE BYRSA", "center_name_ar": "م إبتدائية عقبة بن نافع قرطاج بيرصة", "LATITUDE": 36.848599, "LONGITUDE": 10.32120492 }, "geometry": { "type": "Point", "coordinates": [ 10.32120492, 36.848599 ] } },
{ "type": "Feature", "properties": { "center_code": 1188, "district_code": 2, "district_name": "Tunis 2", "region_code": 1020, "region_name": "Carthage", "center_name": "E.P.2 RUE TANIT CARTHAGE BYRSA", "center_name_ar": "م إبتدائية 2 نهج تانيت قرطاج - بيرسا", "LATITUDE": 36.854063, "LONGITUDE": 10.3288649 }, "geometry": { "type": "Point", "coordinates": [ 10.3288649, 36.854063 ] } },
{ "type": "Feature", "properties": { "center_code": 1189, "district_code": 2, "district_name": "Tunis 2", "region_code": 1020, "region_name": "Carthage", "center_name": "E.P.RUE PLUTARQUE CARTHAGE SALAMBO", "center_name_ar": "م إبتدائية صلامبو نهج بلوتارك - قرطاج الشاطئ", "LATITUDE": 36.843176, "LONGITUDE": 10.32298636 }, "geometry": { "type": "Point", "coordinates": [ 10.32298636, 36.843176 ] } },
{ "type": "Feature", "properties": { "center_code": 1190, "district_code": 2, "district_name": "Tunis 2", "region_code": 1020, "region_name": "Carthage", "center_name": "E.P.CARTHAGE YASMINA", "center_name_ar": "م إبتدائية قرطاج الياسمينة", "LATITUDE": 36.84790159, "LONGITUDE": 10.31052333 }, "geometry": { "type": "Point", "coordinates": [ 10.31052333, 36.84790159 ] } },
{ "type": "Feature", "properties": { "center_code": 1191, "district_code": 2, "district_name": "Tunis 2", "region_code": 1020, "region_name": "Carthage", "center_name": "E.P.CITE MOHAMED ALI CARTHAGE", "center_name_ar": "م إبتدائية حي محمد علي قرطاج", "LATITUDE": 36.85432161, "LONGITUDE": 10.3102295 }, "geometry": { "type": "Point", "coordinates": [ 10.3102295, 36.85432161 ] } },
{ "type": "Feature", "properties": { "center_code": 1192, "district_code": 3, "district_name": "Ben Arous", "region_code": 1021, "region_name": "Ezzahra", "center_name": "E.P.AV.LA REPUBLIQUE ZAHRAA VILLE", "center_name_ar": "م إبتدائية شارع الجمهورية الزهراء - الزهراء المدينة", "LATITUDE": 36.746835, "LONGITUDE": 10.309308 }, "geometry": { "type": "Point", "coordinates": [ 10.309308, 36.746835 ] } },
{ "type": "Feature", "properties": { "center_code": 1193, "district_code": 3, "district_name": "Ben Arous", "region_code": 1021, "region_name": "Ezzahra", "center_name": "E.P.RUE KHAZNADAR -CITE EL HABIB", "center_name_ar": "م إبتدائية شارع خزندار الزهراء - حي الحبيب", "LATITUDE": 36.739741, "LONGITUDE": 10.311604 }, "geometry": { "type": "Point", "coordinates": [ 10.311604, 36.739741 ] } },
{ "type": "Feature", "properties": { "center_code": 1194, "district_code": 3, "district_name": "Ben Arous", "region_code": 1021, "region_name": "Ezzahra", "center_name": "E.P.CITE EL HABIB EZZAHRA", "center_name_ar": "م إبتدائية حي الحبيب الزهراء", "LATITUDE": 36.73761, "LONGITUDE": 10.316702 }, "geometry": { "type": "Point", "coordinates": [ 10.316702, 36.73761 ] } },
{ "type": "Feature", "properties": { "center_code": 1195, "district_code": 3, "district_name": "Ben Arous", "region_code": 1021, "region_name": "Ezzahra", "center_name": "E.P.AV.FARHAT HACHED ZAHRAA 18 JAN", "center_name_ar": "م إبتدائية شارع فرحات حشاد الزهراء - 18جانفي", "LATITUDE": 36.747024, "LONGITUDE": 10.305178 }, "geometry": { "type": "Point", "coordinates": [ 10.305178, 36.747024 ] } },
{ "type": "Feature", "properties": { "center_code": 1196, "district_code": 3, "district_name": "Ben Arous", "region_code": 1021, "region_name": "Ezzahra", "center_name": "C. Mongi Slim Ezzahra - 18 janvier", "center_name_ar": "م .إعدادية  المنجي سليم بالزهراء - 18جانفي", "LATITUDE": 36.747143, "LONGITUDE": 10.300902 }, "geometry": { "type": "Point", "coordinates": [ 10.300902, 36.747143 ] } },
{ "type": "Feature", "properties": { "center_code": 1197, "district_code": 3, "district_name": "Ben Arous", "region_code": 1021, "region_name": "Ezzahra", "center_name": "E.P. BORJ EL WAZIR ZAHRAA", "center_name_ar": "م إبتدائية برج الوزير الزهراء", "LATITUDE": 36.74020791, "LONGITUDE": 10.28461754 }, "geometry": { "type": "Point", "coordinates": [ 10.28461754, 36.74020791 ] } },
{ "type": "Feature", "properties": { "center_code": 1198, "district_code": 3, "district_name": "Ben Arous", "region_code": 1022, "region_name": "Mohamedia", "center_name": "E.P.MHAMDIA 1", "center_name_ar": "م إبتدائية ", "LATITUDE": 36.202, "LONGITUDE": 12.0 }, "geometry": { "type": "Point", "coordinates": [ 12.0, 36.202 ] } },
{ "type": "Feature", "properties": { "center_code": 1199, "district_code": 3, "district_name": "Ben Arous", "region_code": 1022, "region_name": "Mohamedia", "center_name": "E.P.MHAMDIA 2", "center_name_ar": "م إبتدائية ", "LATITUDE": 36.202, "LONGITUDE": 12.0 }, "geometry": { "type": "Point", "coordinates": [ 12.0, 36.202 ] } },
{ "type": "Feature", "properties": { "center_code": 1200, "district_code": 3, "district_name": "Ben Arous", "region_code": 1022, "region_name": "Mohamedia", "center_name": "E.P.CITE ENNASR MHAMDIA", "center_name_ar": "م إبتدائية ", "LATITUDE": 36.202, "LONGITUDE": 12.0 }, "geometry": { "type": "Point", "coordinates": [ 12.0, 36.202 ] } },
{ "type": "Feature", "properties": { "center_code": 1201, "district_code": 3, "district_name": "Ben Arous", "region_code": 1022, "region_name": "Mohamedia", "center_name": "E.P.CITE KSAR MHAMDIA LA MEDINA", "center_name_ar": "م إبتدائية ", "LATITUDE": 36.202, "LONGITUDE": 12.0 }, "geometry": { "type": "Point", "coordinates": [ 12.0, 36.202 ] } },
{ "type": "Feature", "properties": { "center_code": 1202, "district_code": 3, "district_name": "Ben Arous", "region_code": 1022, "region_name": "Mohamedia", "center_name": "E.P. EL HANA 2 MHAMDIA LA MEDINA", "center_name_ar": "م إبتدائية ", "LATITUDE": 36.202, "LONGITUDE": 12.0 }, "geometry": { "type": "Point", "coordinates": [ 12.0, 36.202 ] } },
{ "type": "Feature", "properties": { "center_code": 1203, "district_code": 3, "district_name": "Ben Arous", "region_code": 1022, "region_name": "Mohamedia", "center_name": "E.P.CITE HACHED MHAMDIA MONGI SLIM", "center_name_ar": "م إبتدائية ", "LATITUDE": 36.202, "LONGITUDE": 12.0 }, "geometry": { "type": "Point", "coordinates": [ 12.0, 36.202 ] } },
{ "type": "Feature", "properties": { "center_code": 1204, "district_code": 3, "district_name": "Ben Arous", "region_code": 1022, "region_name": "Mohamedia", "center_name": "E.P.CITE EL HANA1 MONJI SLIM", "center_name_ar": "م إبتدائية ", "LATITUDE": 36.202, "LONGITUDE": 12.0 }, "geometry": { "type": "Point", "coordinates": [ 12.0, 36.202 ] } },
{ "type": "Feature", "properties": { "center_code": 1205, "district_code": 3, "district_name": "Ben Arous", "region_code": 1022, "region_name": "Mohamedia", "center_name": "E.P.TAIEB M'HIRI MHAMDIA MONJI SLIM", "center_name_ar": "م إبتدائية ", "LATITUDE": 36.202, "LONGITUDE": 12.0 }, "geometry": { "type": "Point", "coordinates": [ 12.0, 36.202 ] } },
{ "type": "Feature", "properties": { "center_code": 1206, "district_code": 3, "district_name": "Ben Arous", "region_code": 1022, "region_name": "Mohamedia", "center_name": "E.P.CITE MONJI SLIM", "center_name_ar": "م إبتدائية ", "LATITUDE": 36.202, "LONGITUDE": 12.0 }, "geometry": { "type": "Point", "coordinates": [ 12.0, 36.202 ] } },
{ "type": "Feature", "properties": { "center_code": 1207, "district_code": 3, "district_name": "Ben Arous", "region_code": 1022, "region_name": "Mohamedia", "center_name": "E.P.CITE ESSAADA 1 MHAMDIA -ESSAADA", "center_name_ar": "م إبتدائية ", "LATITUDE": 36.202, "LONGITUDE": 12.0 }, "geometry": { "type": "Point", "coordinates": [ 12.0, 36.202 ] } },
{ "type": "Feature", "properties": { "center_code": 1208, "district_code": 3, "district_name": "Ben Arous", "region_code": 1022, "region_name": "Mohamedia", "center_name": "E.P.CITE ESSAADA 2 MHAMDIA", "center_name_ar": "م إبتدائية ", "LATITUDE": 36.202, "LONGITUDE": 12.0 }, "geometry": { "type": "Point", "coordinates": [ 12.0, 36.202 ] } },
{ "type": "Feature", "properties": { "center_code": 1209, "district_code": 3, "district_name": "Ben Arous", "region_code": 1022, "region_name": "Mohamedia", "center_name": "E.P.CITE ESSAADA 3 ESSAADA", "center_name_ar": "م إبتدائية ", "LATITUDE": 36.202, "LONGITUDE": 12.0 }, "geometry": { "type": "Point", "coordinates": [ 12.0, 36.202 ] } },
{ "type": "Feature", "properties": { "center_code": 1210, "district_code": 3, "district_name": "Ben Arous", "region_code": 1022, "region_name": "Mohamedia", "center_name": "E.P.CITE EL ILMI MHAMDIA ESSAADA", "center_name_ar": "م إبتدائية ", "LATITUDE": 36.202, "LONGITUDE": 12.0 }, "geometry": { "type": "Point", "coordinates": [ 12.0, 36.202 ] } },
{ "type": "Feature", "properties": { "center_code": 1211, "district_code": 3, "district_name": "Ben Arous", "region_code": 1022, "region_name": "Mohamedia", "center_name": "E.P.CITE ENNASSIME 1", "center_name_ar": "م إبتدائية ", "LATITUDE": 36.202, "LONGITUDE": 12.0 }, "geometry": { "type": "Point", "coordinates": [ 12.0, 36.202 ] } },
{ "type": "Feature", "properties": { "center_code": 1212, "district_code": 3, "district_name": "Ben Arous", "region_code": 1022, "region_name": "Mohamedia", "center_name": "E.P.CITE ENNASIM 2 ENNASSIM", "center_name_ar": "م إبتدائية ", "LATITUDE": 36.202, "LONGITUDE": 12.0 }, "geometry": { "type": "Point", "coordinates": [ 12.0, 36.202 ] } },
{ "type": "Feature", "properties": { "center_code": 1213, "district_code": 3, "district_name": "Ben Arous", "region_code": 1022, "region_name": "Mohamedia", "center_name": "E.P.SIDI FREDJ -SIDI FREDJ", "center_name_ar": "م إبتدائية ", "LATITUDE": 36.202, "LONGITUDE": 12.0 }, "geometry": { "type": "Point", "coordinates": [ 12.0, 36.202 ] } },
{ "type": "Feature", "properties": { "center_code": 1214, "district_code": 3, "district_name": "Ben Arous", "region_code": 1023, "region_name": "Medina Jedida", "center_name": "E.P.2 MARS 34\/ NLLE MADINA1", "center_name_ar": "م إبتدائية 2مارس 34 المدينة الجديدة1", "LATITUDE": 36.746591, "LONGITUDE": 10.256069 }, "geometry": { "type": "Point", "coordinates": [ 10.256069, 36.746591 ] } },
{ "type": "Feature", "properties": { "center_code": 1215, "district_code": 3, "district_name": "Ben Arous", "region_code": 1023, "region_name": "Medina Jedida", "center_name": "E.P.MEDINA NEUVE 2", "center_name_ar": "م إبتدائية المدينة الجديدة 2", "LATITUDE": 36.752063, "LONGITUDE": 10.248299 }, "geometry": { "type": "Point", "coordinates": [ 10.248299, 36.752063 ] } },
{ "type": "Feature", "properties": { "center_code": 1216, "district_code": 3, "district_name": "Ben Arous", "region_code": 1023, "region_name": "Medina Jedida", "center_name": "E.P.C.MOSBAH 2-SAFA -SIDI MOSBAH", "center_name_ar": "م إبتدائية حي مصباح 2 صفاء - سيدي مصباح", "LATITUDE": 36.745918, "LONGITUDE": 10.238034 }, "geometry": { "type": "Point", "coordinates": [ 10.238034, 36.745918 ] } },
{ "type": "Feature", "properties": { "center_code": 1217, "district_code": 3, "district_name": "Ben Arous", "region_code": 1023, "region_name": "Medina Jedida", "center_name": "E.P.CITE MOUSBAH NOUVELLE", "center_name_ar": "م إبتدائية حي مصباح الجديد", "LATITUDE": 36.745184, "LONGITUDE": 10.240862 }, "geometry": { "type": "Point", "coordinates": [ 10.240862, 36.745184 ] } },
{ "type": "Feature", "properties": { "center_code": 1218, "district_code": 3, "district_name": "Ben Arous", "region_code": 1023, "region_name": "Medina Jedida", "center_name": "E.P.CITE MOUSBAH 1 SIDI MOSBAH", "center_name_ar": "م إبتدائية حي مصباح 1 - سيدي مصباح", "LATITUDE": 36.74564, "LONGITUDE": 10.241331 }, "geometry": { "type": "Point", "coordinates": [ 10.241331, 36.74564 ] } },
{ "type": "Feature", "properties": { "center_code": 1219, "district_code": 3, "district_name": "Ben Arous", "region_code": 1023, "region_name": "Medina Jedida", "center_name": "E.P. CITE SPROLS 14 JANVIER M JEDIDA", "center_name_ar": "م إبتدائية حي سبرولس  14 جانفي المدينة الجديدة - سيدي مصباح", "LATITUDE": 36.74159472, "LONGITUDE": 10.23937204 }, "geometry": { "type": "Point", "coordinates": [ 10.23937204, 36.74159472 ] } },
{ "type": "Feature", "properties": { "center_code": 1220, "district_code": 3, "district_name": "Ben Arous", "region_code": 1023, "region_name": "Medina Jedida", "center_name": "E.P.ELYASMINETTE 1", "center_name_ar": "م إبتدائية الياسمينات 1 - الياسمينات", "LATITUDE": 36.739672, "LONGITUDE": 10.231177 }, "geometry": { "type": "Point", "coordinates": [ 10.231177, 36.739672 ] } },
{ "type": "Feature", "properties": { "center_code": 1221, "district_code": 3, "district_name": "Ben Arous", "region_code": 1023, "region_name": "Medina Jedida", "center_name": "E.P.YASSMINET 2 YASSMINET", "center_name_ar": "م إبتدائية الياسمينات 2 - الياسمينات", "LATITUDE": 36.741737, "LONGITUDE": 10.230672 }, "geometry": { "type": "Point", "coordinates": [ 10.230672, 36.741737 ] } },
{ "type": "Feature", "properties": { "center_code": 1222, "district_code": 3, "district_name": "Ben Arous", "region_code": 1023, "region_name": "Medina Jedida", "center_name": "E.P.BORJ GHORBEL", "center_name_ar": "م إبتدائية برج غربال المدينة الجديدة - الياسمينات", "LATITUDE": 36.731912, "LONGITUDE": 10.244299 }, "geometry": { "type": "Point", "coordinates": [ 10.244299, 36.731912 ] } },
{ "type": "Feature", "properties": { "center_code": 1223, "district_code": 3, "district_name": "Ben Arous", "region_code": 1023, "region_name": "Medina Jedida", "center_name": "E.P.YASSMINET 3 Nelle Medina YASSMINET", "center_name_ar": "م إبتدائية الياسمينات 3 المدينة الجديدة - الياسمينات", "LATITUDE": 36.74077247, "LONGITUDE": 10.23448589 }, "geometry": { "type": "Point", "coordinates": [ 10.23448589, 36.74077247 ] } },
{ "type": "Feature", "properties": { "center_code": 1224, "district_code": 3, "district_name": "Ben Arous", "region_code": 1023, "region_name": "Medina Jedida", "center_name": "E.P.CITE ROMMANA RABTA", "center_name_ar": "م إبتدائية حي الرمانة - الرابطة", "LATITUDE": 36.739789, "LONGITUDE": 10.246637 }, "geometry": { "type": "Point", "coordinates": [ 10.246637, 36.739789 ] } },
{ "type": "Feature", "properties": { "center_code": 1225, "district_code": 3, "district_name": "Ben Arous", "region_code": 1023, "region_name": "Medina Jedida", "center_name": "E.P.El Medina El Jadida 3 rabta", "center_name_ar": "م إبتدائية المدينة الجديدة3 - الرابطة", "LATITUDE": 36.742239, "LONGITUDE": 10.252783 }, "geometry": { "type": "Point", "coordinates": [ 10.252783, 36.742239 ] } },
{ "type": "Feature", "properties": { "center_code": 1226, "district_code": 3, "district_name": "Ben Arous", "region_code": 1024, "region_name": "El Mourouj", "center_name": "E.P.IBN MANDHOUR -MOUROUJ 1", "center_name_ar": "م إبتدائية ابن منظور المروج - المروج (1)", "LATITUDE": 36.736186, "LONGITUDE": 10.207126 }, "geometry": { "type": "Point", "coordinates": [ 10.207126, 36.736186 ] } },
{ "type": "Feature", "properties": { "center_code": 1227, "district_code": 3, "district_name": "Ben Arous", "region_code": 1024, "region_name": "El Mourouj", "center_name": "E.P.2 MARS 34 EL MOUROUJ MOUROUJ1", "center_name_ar": "م إبتدائية  2مارس 34 المروج - المروج (1)", "LATITUDE": 36.732455, "LONGITUDE": 10.200028 }, "geometry": { "type": "Point", "coordinates": [ 10.200028, 36.732455 ] } },
{ "type": "Feature", "properties": { "center_code": 1228, "district_code": 3, "district_name": "Ben Arous", "region_code": 1024, "region_name": "El Mourouj", "center_name": "E.P.14 JANVIER  EL MOUROUJ MOUROUJ1", "center_name_ar": "م إبتدائية   14 جانفي المروج - المروج (1)", "LATITUDE": 36.73197809, "LONGITUDE": 10.20748726 }, "geometry": { "type": "Point", "coordinates": [ 10.20748726, 36.73197809 ] } },
{ "type": "Feature", "properties": { "center_code": 1229, "district_code": 3, "district_name": "Ben Arous", "region_code": 1024, "region_name": "El Mourouj", "center_name": "E.P. CTE RIADH EL MOUROUJE 3", "center_name_ar": "م إبتدائية حي الرياض المروج 3", "LATITUDE": 36.71943397, "LONGITUDE": 10.22137956 }, "geometry": { "type": "Point", "coordinates": [ 10.22137956, 36.71943397 ] } },
{ "type": "Feature", "properties": { "center_code": 1230, "district_code": 3, "district_name": "Ben Arous", "region_code": 1024, "region_name": "El Mourouj", "center_name": "E.P.KHEIREDDINE PACHA MOUROUJ 3", "center_name_ar": "م إبتدائية خير الدين باشا المروج 3", "LATITUDE": 36.725294, "LONGITUDE": 10.216157 }, "geometry": { "type": "Point", "coordinates": [ 10.216157, 36.725294 ] } },
{ "type": "Feature", "properties": { "center_code": 1231, "district_code": 3, "district_name": "Ben Arous", "region_code": 1024, "region_name": "El Mourouj", "center_name": "E.P.CITE ENNASR EL MOUROUJ MOUROUJ3", "center_name_ar": "م إبتدائية حي النصر المروج - المروج (3)", "LATITUDE": 36.720988, "LONGITUDE": 10.209504 }, "geometry": { "type": "Point", "coordinates": [ 10.209504, 36.720988 ] } },
{ "type": "Feature", "properties": { "center_code": 1232, "district_code": 3, "district_name": "Ben Arous", "region_code": 1024, "region_name": "El Mourouj", "center_name": "E.P.IBN RACHIK RUE D'ALGER MOUROUJ3", "center_name_ar": "م إبتدائية ابن رشيق نهج الجزائر - المروج (3)", "LATITUDE": 36.724412, "LONGITUDE": 10.216699 }, "geometry": { "type": "Point", "coordinates": [ 10.216699, 36.724412 ] } },
{ "type": "Feature", "properties": { "center_code": 1233, "district_code": 3, "district_name": "Ben Arous", "region_code": 1024, "region_name": "El Mourouj", "center_name": "E.P.TAHAR HADDED MOUROUJ 4", "center_name_ar": "م إبتدائية الطاهر الحداد المروج - المروج (4)", "LATITUDE": 36.717714, "LONGITUDE": 10.213842 }, "geometry": { "type": "Point", "coordinates": [ 10.213842, 36.717714 ] } },
{ "type": "Feature", "properties": { "center_code": 1234, "district_code": 3, "district_name": "Ben Arous", "region_code": 1024, "region_name": "El Mourouj", "center_name": "E.P.EL FAOUZ 2 MOUROUJ 4", "center_name_ar": "م إبتدائية الفوز 2 المروج 4", "LATITUDE": 36.717589, "LONGITUDE": 10.201295 }, "geometry": { "type": "Point", "coordinates": [ 10.201295, 36.717589 ] } },
{ "type": "Feature", "properties": { "center_code": 1235, "district_code": 3, "district_name": "Ben Arous", "region_code": 1024, "region_name": "El Mourouj", "center_name": "E.P.AVICENNE MOUROUJ 5", "center_name_ar": "م إبتدائية  ابن سينا المروج الخامس", "LATITUDE": 36.71455859, "LONGITUDE": 10.22077831 }, "geometry": { "type": "Point", "coordinates": [ 10.22077831, 36.71455859 ] } },
{ "type": "Feature", "properties": { "center_code": 1236, "district_code": 3, "district_name": "Ben Arous", "region_code": 1024, "region_name": "El Mourouj", "center_name": "E.P.CITE BOUCHRA MOUROUJ 4 MOUROUJ", "center_name_ar": "م إبتدائية حي بشرى المروج 4 - المروج (5)", "LATITUDE": 36.713011, "LONGITUDE": 10.217842 }, "geometry": { "type": "Point", "coordinates": [ 10.217842, 36.713011 ] } },
{ "type": "Feature", "properties": { "center_code": 1237, "district_code": 3, "district_name": "Ben Arous", "region_code": 1024, "region_name": "El Mourouj", "center_name": "E.P.EL FAOUZ 1 MOUROUJ 5", "center_name_ar": "م إبتدائية الفوز1 المروج 5", "LATITUDE": 36.71427083, "LONGITUDE": 10.21123767 }, "geometry": { "type": "Point", "coordinates": [ 10.21123767, 36.71427083 ] } },
{ "type": "Feature", "properties": { "center_code": 1238, "district_code": 3, "district_name": "Ben Arous", "region_code": 1024, "region_name": "El Mourouj", "center_name": "E.P. CITE ELFOL-BEYREM ETTOUNSI MOUROUJ5", "center_name_ar": "م إبتدائية حي الفل بيرم التونسي - المروج (5)", "LATITUDE": 36.706321, "LONGITUDE": 10.201748 }, "geometry": { "type": "Point", "coordinates": [ 10.201748, 36.706321 ] } },
{ "type": "Feature", "properties": { "center_code": 1239, "district_code": 3, "district_name": "Ben Arous", "region_code": 1024, "region_name": "El Mourouj", "center_name": "E.P.EL FAOUZ 3 MOUROUJ 5", "center_name_ar": "م إبتدائية الفوز 3 المروج 5", "LATITUDE": 36.709041, "LONGITUDE": 10.208887 }, "geometry": { "type": "Point", "coordinates": [ 10.208887, 36.709041 ] } },
{ "type": "Feature", "properties": { "center_code": 1240, "district_code": 3, "district_name": "Ben Arous", "region_code": 1024, "region_name": "El Mourouj", "center_name": "E.P.EL AMEL EL BESSETINE - BIR KASAA", "center_name_ar": "م إبتدائية ", "LATITUDE": 36.202, "LONGITUDE": 12.0 }, "geometry": { "type": "Point", "coordinates": [ 12.0, 36.202 ] } },
{ "type": "Feature", "properties": { "center_code": 1241, "district_code": 3, "district_name": "Ben Arous", "region_code": 1024, "region_name": "El Mourouj", "center_name": "E.P.CITE AMOR LOUATI", "center_name_ar": "م إبتدائية حي عمر اللواتي - فرحات حشاد", "LATITUDE": 36.723574, "LONGITUDE": 10.235925 }, "geometry": { "type": "Point", "coordinates": [ 10.235925, 36.723574 ] } },
{ "type": "Feature", "properties": { "center_code": 1242, "district_code": 3, "district_name": "Ben Arous", "region_code": 1024, "region_name": "El Mourouj", "center_name": "E.P.CITE FAYALA FARHAT HACHED", "center_name_ar": "م إبتدائية حي فيالة - فرحات حشاد", "LATITUDE": 36.707336, "LONGITUDE": 10.238917 }, "geometry": { "type": "Point", "coordinates": [ 10.238917, 36.707336 ] } },
{ "type": "Feature", "properties": { "center_code": 1243, "district_code": 3, "district_name": "Ben Arous", "region_code": 1025, "region_name": "Ben Arous", "center_name": "E.P.RUE DE BIZERTE BEN AROUS EST", "center_name_ar": "م إبتدائية ", "LATITUDE": 36.202, "LONGITUDE": 12.0 }, "geometry": { "type": "Point", "coordinates": [ 12.0, 36.202 ] } },
{ "type": "Feature", "properties": { "center_code": 1244, "district_code": 3, "district_name": "Ben Arous", "region_code": 1025, "region_name": "Ben Arous", "center_name": "E.P.RUE DE KAIROUAN BEN AROUS EST", "center_name_ar": "م إبتدائية نهج القيروان بن عروس - بن عروس الشرقية", "LATITUDE": 36.757107, "LONGITUDE": 10.222462 }, "geometry": { "type": "Point", "coordinates": [ 10.222462, 36.757107 ] } },
{ "type": "Feature", "properties": { "center_code": 1245, "district_code": 3, "district_name": "Ben Arous", "region_code": 1025, "region_name": "Ben Arous", "center_name": "E.P.CITE DU STADE B. AROUS -TAIEB MHIRI", "center_name_ar": "م إبتدائية حي الملعب بن عروس - الطيب المهيري", "LATITUDE": 36.756092, "LONGITUDE": 10.227075 }, "geometry": { "type": "Point", "coordinates": [ 10.227075, 36.756092 ] } },
{ "type": "Feature", "properties": { "center_code": 1246, "district_code": 3, "district_name": "Ben Arous", "region_code": 1025, "region_name": "Ben Arous", "center_name": "E.P.RUE DU 1 MAI -B. AROUS OUEST", "center_name_ar": "م إبتدائية نهج غرة ماي بن عروس - بن عروس الغربية", "LATITUDE": 36.747359, "LONGITUDE": 10.219549 }, "geometry": { "type": "Point", "coordinates": [ 10.219549, 36.747359 ] } },
{ "type": "Feature", "properties": { "center_code": 1247, "district_code": 3, "district_name": "Ben Arous", "region_code": 1025, "region_name": "Ben Arous", "center_name": "E.P.RUE CHARLES NICOLLE -B. AROUS", "center_name_ar": "م إبتدائية نهج شارل نيكول بن عروس - سيدي بن عروس", "LATITUDE": 36.752479, "LONGITUDE": 10.222521 }, "geometry": { "type": "Point", "coordinates": [ 10.222521, 36.752479 ] } },
{ "type": "Feature", "properties": { "center_code": 1248, "district_code": 3, "district_name": "Ben Arous", "region_code": 1025, "region_name": "Ben Arous", "center_name": "E.P.RUE DE LA CONCORDE", "center_name_ar": "م إبتدائية نهج التآلف بن عروس - سيدي بن عروس", "LATITUDE": 36.751192, "LONGITUDE": 10.22336 }, "geometry": { "type": "Point", "coordinates": [ 10.22336, 36.751192 ] } },
{ "type": "Feature", "properties": { "center_code": 1249, "district_code": 3, "district_name": "Ben Arous", "region_code": 1025, "region_name": "Ben Arous", "center_name": "E.P.RUE KHEIREDDINE BEN AROUSS B.AROUS", "center_name_ar": "م إبتدائية نهج خير الدين بن عروس - سيدي بن عروس", "LATITUDE": 36.750157, "LONGITUDE": 10.214586 }, "geometry": { "type": "Point", "coordinates": [ 10.214586, 36.750157 ] } },
{ "type": "Feature", "properties": { "center_code": 1250, "district_code": 3, "district_name": "Ben Arous", "region_code": 1025, "region_name": "Ben Arous", "center_name": "E.P.BIR KASSAA F.HACHED CITE ISKEN", "center_name_ar": "م إبتدائية بئر القصعة حشاد - حي الاسكان", "LATITUDE": 36.739421, "LONGITUDE": 10.21914 }, "geometry": { "type": "Point", "coordinates": [ 10.21914, 36.739421 ] } },
{ "type": "Feature", "properties": { "center_code": 1251, "district_code": 3, "district_name": "Ben Arous", "region_code": 1025, "region_name": "Ben Arous", "center_name": "E.P.INST. ENNOUR BIR ELKASAA -CITE ISKEN", "center_name_ar": "م إبتدائية معهد النور بئر القصعة - حي الاسكان", "LATITUDE": 36.739679, "LONGITUDE": 10.220019 }, "geometry": { "type": "Point", "coordinates": [ 10.220019, 36.739679 ] } },
{ "type": "Feature", "properties": { "center_code": 1252, "district_code": 3, "district_name": "Ben Arous", "region_code": 1026, "region_name": "Bou Mhel el-Bassatine", "center_name": "E.P.CITE BEL AIR BOUMHEL", "center_name_ar": "م إبتدائية حي الهواء الطلق - بومهل", "LATITUDE": 36.728226, "LONGITUDE": 10.310283 }, "geometry": { "type": "Point", "coordinates": [ 10.310283, 36.728226 ] } },
{ "type": "Feature", "properties": { "center_code": 1253, "district_code": 3, "district_name": "Ben Arous", "region_code": 1026, "region_name": "Bou Mhel el-Bassatine", "center_name": "E.P.CITE ESSALEM BOUMHEL", "center_name_ar": "م إبتدائية حي السلام بومهل", "LATITUDE": 36.723208, "LONGITUDE": 10.303553 }, "geometry": { "type": "Point", "coordinates": [ 10.303553, 36.723208 ] } },
{ "type": "Feature", "properties": { "center_code": 1254, "district_code": 3, "district_name": "Ben Arous", "region_code": 1026, "region_name": "Bou Mhel el-Bassatine", "center_name": "E.P.CITE EL BESSETINE 1", "center_name_ar": "م إبتدائية حي البساتين 1 بومهل - البساتين", "LATITUDE": 36.705613, "LONGITUDE": 10.404187 }, "geometry": { "type": "Point", "coordinates": [ 10.404187, 36.705613 ] } },
{ "type": "Feature", "properties": { "center_code": 1255, "district_code": 3, "district_name": "Ben Arous", "region_code": 1026, "region_name": "Bou Mhel el-Bassatine", "center_name": "E.P.EL BESSETINE 2 -BOU M'HEL BESSETINE", "center_name_ar": "م إبتدائية البساتين 2 بومهل - البساتين", "LATITUDE": 36.729506, "LONGITUDE": 10.289795 }, "geometry": { "type": "Point", "coordinates": [ 10.289795, 36.729506 ] } },
{ "type": "Feature", "properties": { "center_code": 1256, "district_code": 3, "district_name": "Ben Arous", "region_code": 1026, "region_name": "Bou Mhel el-Bassatine", "center_name": "E.P.SIDI BOU M'HEL 1 -CHELLA", "center_name_ar": "م إبتدائية  بومهل 1 - شالة", "LATITUDE": 36.72014076, "LONGITUDE": 10.29641038 }, "geometry": { "type": "Point", "coordinates": [ 10.29641038, 36.72014076 ] } },
{ "type": "Feature", "properties": { "center_code": 1257, "district_code": 3, "district_name": "Ben Arous", "region_code": 1026, "region_name": "Bou Mhel el-Bassatine", "center_name": "E.P.SIDI BOUMHEL 2 CHALA", "center_name_ar": "م إبتدائية  بومهل 2 - شالة", "LATITUDE": 36.71892403, "LONGITUDE": 10.29668408 }, "geometry": { "type": "Point", "coordinates": [ 10.29668408, 36.71892403 ] } },
{ "type": "Feature", "properties": { "center_code": 1258, "district_code": 3, "district_name": "Ben Arous", "region_code": 1026, "region_name": "Bou Mhel el-Bassatine", "center_name": "E.P.CITE CHALA BOUMHEL CHALA", "center_name_ar": "م إبتدائية حي شالة بومهل - شالة", "LATITUDE": 36.696932, "LONGITUDE": 10.300976 }, "geometry": { "type": "Point", "coordinates": [ 10.300976, 36.696932 ] } },
{ "type": "Feature", "properties": { "center_code": 1259, "district_code": 3, "district_name": "Ben Arous", "region_code": 1026, "region_name": "Bou Mhel el-Bassatine", "center_name": "E.P.CITE ELKHALIJ BOUMHEL CHALA", "center_name_ar": "م إبتدائية حي الخليج بومهل - شالة", "LATITUDE": 36.716193, "LONGITUDE": 10.283797 }, "geometry": { "type": "Point", "coordinates": [ 10.283797, 36.716193 ] } },
{ "type": "Feature", "properties": { "center_code": 1260, "district_code": 3, "district_name": "Ben Arous", "region_code": 1027, "region_name": "Hammam Lif", "center_name": "E.P.RUE ANTONY HAM.LIF - LA MEDINA 1", "center_name_ar": "م إبتدائية نهج أنطوني حمام الأنف - المدينة 1", "LATITUDE": 36.730785, "LONGITUDE": 10.333911 }, "geometry": { "type": "Point", "coordinates": [ 10.333911, 36.730785 ] } },
{ "type": "Feature", "properties": { "center_code": 1261, "district_code": 3, "district_name": "Ben Arous", "region_code": 1027, "region_name": "Hammam Lif", "center_name": "E.P.RUE BOUCHOUCHA HAMEM LIF", "center_name_ar": "م إبتدائية صلاح الدين نهج بوشوشة حمام الأنف - المدينة 1", "LATITUDE": 36.72932941, "LONGITUDE": 10.33714688 }, "geometry": { "type": "Point", "coordinates": [ 10.33714688, 36.72932941 ] } },
{ "type": "Feature", "properties": { "center_code": 1262, "district_code": 3, "district_name": "Ben Arous", "region_code": 1027, "region_name": "Hammam Lif", "center_name": "E.P.RUE LIBYE HAM.LIF BOUGARNINE", "center_name_ar": "م إبتدائية نهج ليبيا حمام الأنف - بوقرنين", "LATITUDE": 36.735307, "LONGITUDE": 10.327989 }, "geometry": { "type": "Point", "coordinates": [ 10.327989, 36.735307 ] } },